stop_id,stop_name,stop_lat,stop_lon
9831,Anna Nagar West Depot,13.09370,80.19842
824,Blue Star Othavadi Street,13.08858,80.27576
840,Broadway,13.08762,80.28383
11,Alandur Depot,12.99708,80.19136
1242,Elephant Gate,13.09168,80.27509
1243,Elephant Gate,13.09165,80.27537
9158,Foreshore Estate Bus Terminus,13.02264,80.27635
823,Blue Star Othavadi Street,13.08854,80.27541
10470,Madhavaram Bus Depot,13.13241,80.23690
5934,Poonjeri Koot Road,12.61479,80.17210
5535,Adyar Depot,12.99780,80.25617
10496,Tollgate,13.14446,80.29698
8936,Alandur Depot,12.99583,80.18871
5340,Madhavaram Depot,13.13207,80.23685
82,Mgr Central Railway Station,13.08179,80.27525
8929,Alandur Depot,12.99719,80.19060
13,Annanagar Depot,13.09567,80.19791
10467,Madhavaram Bus Depot,13.13200,80.23708
6944,Peravallur,13.11595,80.23150
6945,Peravallur,13.11603,80.23180
5292,Vyasarpadi Sathiyamoorthy Nagar,13.11957,80.26583
6461,Perumbakkam,12.88660,80.21035
7012,Vyasarpadi Sathiyamoorthy Nagar,13.12273,80.26575
5345,Perumbakkam Depot,12.88775,80.20880
5351,Tondairpet-1 Depot,13.13131,80.29319
5852,Thirumazhisai Bus Stand,13.05591,80.05667
3,Broadway,13.08822,80.28380
5293,Vyasarpadi Sidco,13.13149,80.25279
10890,Cement Road,12.99568,80.18907
8805,Thiruvanmiyur Depot,12.98750,80.25919
9409,Kamarajar Illam,13.04857,80.23996
78,Metrological Department Sterling Road,13.06784,80.24649
10991,Meenambakkam,12.98687,80.17562
5398,Nsk Nagar Main Road,13.07534,80.21648
9919,Ambattur Industrial Estate,13.09931,80.17033
9921,Ambattur Industrial Estate,13.09968,80.17031
9341,Ashok Nagar Canara Bank,13.03986,80.21209
10231,Brindavan Street,13.04226,80.22463
5616,Joint Office,13.09983,80.22991
5666,Joint Office,13.09960,80.22983
5955,Salmon Kuppam,12.65490,80.20678
9410,Kamarajar Illam,13.04774,80.24002
5614,Kambar Arangam,13.09933,80.21976
5668,Kambar Arangam,13.09908,80.21947
5908,Thiruvanmiyur Bus Stand,12.98695,80.25929
5669,Icf,13.10009,80.21555
5613,Icf,13.10035,80.21584
10163,Kundrathur Nalu Road Or Kolachery Junction,13.00369,80.09977
10162,Kundrathur Nalu Road Or Kolachery Junction,13.00335,80.09978
10536,Manali Bus Terminus,13.17012,80.25743
7522,Mathur Gate,13.16672,80.24536
7524,Mathur Gate,13.16691,80.24586
6632,Medavakkam Koot Road,12.92035,80.18380
6631,Medavakkam Koot Road,12.92020,80.18392
7536,Pammadukulam Pothur,13.16827,80.15496
7535,Pammadukulam Pothur,13.16825,80.15468
7681,Redhills Market,13.18922,80.18757
7687,Redhills Market,13.18974,80.18740
5665,Noor Hotel,13.09841,80.23502
5913,Adyar Depot,12.99910,80.25638
9991,Kilambakkam Bus Terminus,12.87351,80.07858
10534,Manali Bus Terminus,13.16998,80.25722
10876,Kilambakkam Depot,12.87309,80.07951
5910,Adyar Depot,12.99880,80.25588
5820,Foreshore Estate Bus Stop,13.02537,80.27483
10312,Thirumangalam Or Sunguvarchattram,13.08547,80.19910
5694,Blue Star,13.08478,80.21093
5677,Thirumangalam Eb Office,13.08732,80.19757
9757,Kandaswami Naidu College,13.08552,80.21787
9856,Gandhi Nagar Hospital,13.09591,80.21907
8004,Periyar Nagar,13.26939,80.03395
6985,S R B Colony,13.11858,80.22616
8653,San Academy,12.97597,80.21233
10129,A.G.S 4th Cross Street,12.97780,80.21001
9122,Arasamaram 1,13.02080,80.16630
6125,Kelambakkam V A O Office,12.79383,80.22260
5958,Pandithamedu Village,12.66352,80.17763
9738,Royal Club,13.08427,80.14319
9764,Chinna Koladi Road Junction,13.08636,80.13509
5597,Pondy Bazar Globus,13.04013,80.24331
7151,Tondiarpet Power House,13.12867,80.27871
7141,Tondiarpet Appartment,13.12828,80.28170
6643,Selaiyur,12.92239,80.13835
5726,Bhaktavatsalam Memorial College,13.10810,80.18347
8715,Bhakthavatchalam Nagar,12.98055,79.93733
8662,Apollo Pharmacy,12.97622,80.14503
8658,Tangarathinam Sweet Stall,12.97616,80.14514
8628,Booth S5 Pallavaram Police Station,12.97354,80.14703
5660,Motcham Theatre Or Grt,13.08589,80.25018
9457,Saveetha Hospital,13.05361,80.12356
7343,Madhavaram Rountana,13.14402,80.22108
7277,Kalpana Lamps,13.13881,80.22788
7744,Dwarka Nagar Elementary School,13.19699,80.26964
7323,Thangaya Gate,13.14217,80.08766
7301,Military Hospital Avadi,13.14045,80.09334
8791,Anjaneyar Temple,12.98644,80.19257
8732,Vanuvambedu,12.98154,80.19532
8887,St Thomas Mount Railway Station,12.99443,80.20019
8827,Kakkan Bridge,12.98924,80.20486
8862,Jayalaksmi Theatre,12.99147,80.19870
9064,Labour Colony,13.01511,80.21485
9512,Triplicane Post Office,13.06054,80.27425
5909,Jayanthi Theatre,12.98872,80.25585
8993,Adyar Signal,13.00639,80.25756
8921,Vannandurai,12.99621,80.26274
8905,Indira Nagar Adyar,12.99538,80.25302
5805,Adyar Old Depot,13.00652,80.25378
5813,B Ramachandra Adithanar Road,13.00977,80.24897
5750,Madhya Kailash,13.00681,80.24674
10200,Chamiers Road Or Venkateswara Hospital,13.02975,80.24341
1739,Kaliyappa Hospital,13.02718,80.25441
8994,Adyar Signal,13.00648,80.25737
5760,Adyar Signal,13.00715,80.25884
8881,Madha College Back Gate,12.99390,80.12431
5759,Arunachalapuram,13.00877,80.25922
10251,Gemini P H Or U S I S,13.05268,80.25098
8131,Ayyanar Medu,13.32320,80.11899
8156,Chinnambedu Lake,13.33466,80.10339
6891,Jawahar Nagar Periyar Nagar,13.11277,80.22964
10002,Pathuvanchery Kovil,12.88690,80.14885
7402,Telephone Colony 1st Street,13.15129,80.24000
7054,Mani Koondu,13.12233,80.28688
9975,Navalur,12.84472,80.22643
6358,Semmancheri,12.86052,80.22664
8928,Alandur Depot,12.99697,80.19172
10089,I.O.B Bank,12.95441,80.13548
8459,Srimathi Sundaravalli Memoria,12.95618,80.13326
7398,Sri Bhavani Amman Kovil,13.15121,80.25828
106,Pf Office,13.04916,80.26435
5804,Adyar Old Depot,13.00666,80.25320
10182,Gerugampakkam Murugan Kovil,13.01115,80.13577
10180,Virugambakkam Kulam,13.01106,80.13762
9023,Swami Nagar,13.01078,80.15162
9017,Kolapakkam Mgr Silai,13.01010,80.14917
10611,Amirthanallur,13.28807,80.11176
6581,Vgp Golden Beach,12.91393,80.25038
6465,Panaiyur,12.88704,80.24559
6344,Palakka Company,12.85696,80.07001
6158,Padur,12.80550,80.22407
6601,Tmg College Manimangalam,12.91729,80.05321
6595,Manimangalam Road Junction,12.91667,80.04257
9643,Pachaiyappas College,13.07679,80.23366
5658,Dharma Prakash Or Mctm School,13.08066,80.25472
8758,Nandambakkam,12.98375,80.06259
8673,Nandambakkam Village,12.97788,80.06609
7043,Menambedu,13.12187,80.16464
8687,Periya Colony,12.97846,80.06572
6000,Madayathur,12.71302,80.14531
8483,Kavitha Pannai,12.95966,80.17558
7730,Gandhi Nagar Redhills,13.19521,80.16822
7222,Amman Kovil Villivakam,13.13396,80.20606
7028,Jai Ganesh Temple,13.12082,80.15812
7769,Eswaran Temple,13.20274,80.12995
7795,Alamathi Sub Station,13.21036,80.09946
7788,Alamathi,13.20777,80.10945
7801,Vanianchathiram,13.21180,80.09328
10246,Meenakshi Dental Hospital,13.05158,80.16643
8817,Pazhavanthangal Subway,12.98795,80.18518
8866,Air Port Cargo,12.99233,80.18236
9057,Cipet,13.01459,80.20477
8991,Kathipara Urban Square,13.00591,80.20285
9380,S S Motor,13.04483,80.16484
6434,Nedugundram,12.88032,80.10882
9517,Alapakkam Maduravoyal,13.06114,80.16384
9487,Alamelu Kalyana Mandapam,13.05726,80.16631
5974,Sidco Industrial Estate Alathur,12.69438,80.18117
5959,Pandithamedu Village,12.66384,80.17751
10294,Egmore M.M.D.A,13.07816,80.26364
9658,Egmore,13.07781,80.26371
33,Commissioner Office,13.07396,80.26178
6468,Lydia Matriculation School,12.88776,80.13640
6427,Murugan Nagar,12.87957,80.13609
5917,Queen Marys College,13.04585,80.28019
5635,Avm Rajeshwari Thirumana Mandapam,13.04471,80.26521
5777,City Centre Or Kalyani Hospital,13.04383,80.27170
10948,Udhyam Theater / Ashok Pillar,13.03499,80.21116
10992,Iyyapan Kovil,13.08494,80.21316
908,Chellammal College,13.01213,80.22034
6013,Thiruporur Bus Terminus,12.72188,80.18754
6410,Semmancheri Bus Terminus,12.87473,80.20984
10993,Anna Nagar Roundtana,13.08450,80.21995
10994,Ashok Nagar,13.03191,80.21111
10996,Bilroth Hospital,13.02904,80.25584
9887,Dasa Mahan,13.09764,80.25456
10997,Chetpet Signal,13.06955,80.24342
10998,Chetpet Signal,13.06930,80.24353
10999,Choolaimedu/Nungabakkam Railway Station,13.06680,80.23053
8909,Alandur,12.99577,80.18905
5924,Yellow Pages,13.04452,80.26905
4711,Vadapalani Thiru Nagar,13.05741,80.21130
4712,Vadapalani Thiru Nagar,13.05790,80.21166
9244,Ashok Nagar 11th Avenue,13.03169,80.21259
48,K.K.Nagar E.S.I Hospital,13.03549,80.20838
49,K.K.Nagar E.S.I Hospital,13.03522,80.20863
5920,D G P Office,13.04344,80.27779
6026,Shiva Temple Kattur,12.73338,80.16141
5764,Raj Bhavan Quarters,13.01054,80.22518
10972,Tambaram West Bus Stand,12.92774,80.11911
242,Adyar Gate,13.02903,80.24869
10973,Medavakkam Jayachandran,12.91723,80.19287
6032,Paranur,12.73816,79.98860
11001,Vadapalani Kovil (SIMS Hospital),13.05323,80.21194
8500,Chromepet Ponds Company,12.96152,80.14613
11083,TEST,13.07879,80.27851
9604,Simpsons Chintadripet,13.07299,80.27364
6102,Kovalam Bus Terminus,12.78697,80.24921
5343,Poonamallee Depot,13.05159,80.09007
11002,Aayanavaram Police Station,13.09885,80.23256
11003,DK Kalyanam Mandabam,13.08787,80.21807
11004,ACA Church,13.09083,80.25111
11005,Blue Star,13.08510,80.20804
11013,S S Super Market,13.09097,80.21813
11009,East Avenue Road,13.10034,80.18650
11018,Kamaraj Statue,13.11580,80.23200
11014,Vivekananda House Terminal,13.05158,80.27713
11017,Collector Nagar,13.08778,80.19004
11019,Kolathur Anna Statue,13.12049,80.22433
10324,Saravana,13.09017,80.25105
11020,Megala Theatre,13.08670,80.25056
2846,Moolakothalam,13.10468,80.27580
9869,Pattalam,13.09649,80.25911
8059,Thachur Koot Road Junction,13.29654,80.14801
10623,Durainallur Or Chinnambedu,13.32055,80.12695
5352,Tondairpet-2 Depot,13.13511,80.29019
10903,Semmenchery Depot,12.87477,80.20987
8126,Siruvapuri Temple,13.32069,80.12030
8688,Periya Colony,12.97850,80.06574
10443,Thiruninravur Bus Stand,13.12496,80.03259
8144,Arani,13.33051,80.08476
8360,Amarambedu East,12.94345,79.99458
6997,Agrakaram,13.11938,80.19857
10950,Ajanta Stop,13.03718,80.19644
11015,Indira Nagar Water Tank,12.99621,80.25398
11016,Jai Nagar Park,13.06911,80.20679
9449,Ice House Police Station,13.05257,80.27436
11029,Valasai Ellupai Rd Jn,13.03735,79.95769
11030,Puduvallur Jn.,13.06093,79.96000
11031,Munusami Salai,13.04380,80.19370
8412,Somangalam,12.94928,80.03222
8534,Amarambedu Chatram,12.96446,80.01333
7254,Thendral Nagar,13.13686,80.14190
11034,Five Furlong Road,12.99760,80.21605
5350,Thiruvottriyur Depot,13.17247,80.30476
11035,KP Oil Mill,12.92841,80.20212
11036,Ellaiamman koil,13.15817,80.30100
11038,Ashok Nagar 7th Avenue,13.03455,80.21623
190,Manthoppu Hr Sec School,13.02498,80.21915
11040,Vani Mahal,13.04655,80.24285
5826,Eldams Road,13.03890,80.25000
6857,Ramalingapuram,13.10907,80.26754
4940,Vadapalani,13.04632,80.21241
6490,Vandalur Gate,12.89346,80.08633
9855,Gandhi Nagar Hospital,13.09489,80.21860
6848,Perambur Church,13.10897,80.24181
11042,Simpson,13.12414,80.24218
6758,Clive Battery,13.09900,80.29374
6770,Telephone Exchange,13.10128,80.16264
11045,Ellaiamman Kovil,13.15723,80.30522
8398,Kamatchi Hospital,12.94870,80.20801
6795,Bharathi Arts College,13.10327,80.28705
10083,Chennai One It Sez,12.95010,80.23268
6553,Perungalattur,12.90556,80.09607
8501,Ponds Company,12.96169,80.14592
2819,Mmda Colony Road Junction,13.06514,80.21101
11041,P1 Police station G3,13.09977,80.26028
11046,Vallalar Nagar or Mint,13.10551,80.28033
11047,Madhavaram post office,13.14111,80.23733
11048,Mudichur Bypass Rd Jn - Jmp,12.92513,80.10022
11049,Pulikkuradu Petrol Bunk Bypass Rd Jn - Jmp,12.94574,80.10640
11050,Thiruneermalai Bypass Rd Jn - Jmp,12.95833,80.11917
11051,Thendral Nagar By Pass - Jmp,12.98025,80.12057
11052,Pammal Adyar Bridge Bypass Rd Jn - Jmp,12.98555,80.12090
11053,Kovur Rd Jn - Jmp,13.01174,80.12743
11054,Mangadu Rd Jn - Jmp,13.02082,80.13660
11055,Porur Bypass Rd Jn-Jmp,13.04562,80.14962
7784,Sirugavur,13.20606,80.21725
11056,Tvs Mcc Motors Bypass -Jmp,13.05181,80.15117
11057,Maduravoyal Bypass Rd Jn-Jmp,13.06284,80.16099
11058,Athipet Junction,13.08916,80.16127
1,K.K.Nagar,13.03563,80.20570
6666,Kamarajapuram,12.92339,80.15499
7292,Anna Nagar,13.13982,80.29861
7229,N4 Police Station,13.13441,80.29721
7189,Nagara Thottam,13.13151,80.29634
11060,Monahan Girls High Sec School,13.05421,80.26158
7130,Oragadam,13.12683,80.15367
6641,Camp Road Junction Selaiyur,12.92241,80.14313
11065,Beach Station Post Office,13.09304,80.29185
8919,Pallavaram Main Road,12.99614,80.14548
135,Thiruvalluvar Statue,13.04157,80.26811
8434,Balaji Nagar,12.95362,80.21190
6801,Madhavaram Aaduthotti,13.10221,80.26034
8435,Balaji Nagar,12.95392,80.21228
6902,Melpatti Ponnaiyan Street Erikkarai,13.11334,80.25921
6922,Vyasarpadi Market,13.11475,80.26156
8941,Womens Polytechnic College,12.99827,80.24884
6899,Melpatti Ponnaiyan Street Erikkarai,13.11330,80.25909
6864,Ganeshapuram,13.11012,80.25959
11069,Jothi Nagar Noothanceri,12.89598,80.17270
5347,Tambaram Depot,12.93240,80.12154
11071,Broadway Theatre,13.09995,80.28677
11072,Mannadi Metro,13.09424,80.28618
9925,A.V.I.T College Payyanur,12.65715,80.17664
9924,A.V.I.T College Payyanur,12.65671,80.17641
10457,Aaliyamman Temple Or Tondiarpet Masuthi,13.12847,80.28493
5349,Thiruvanmiyur Depot,12.98719,80.25881
5342,Perambur Depot,13.10232,80.24941
5353,Vadapalani Depot,13.05070,80.20686
8740,Adambakkam,12.98183,80.20461
8851,Adambakkam,12.99082,80.19847
10788,Adambakkam A.G.S.Officer'S Colony,12.98146,80.20673
10786,Adambakkam A.G.S.Officer'S Colony-2,12.97799,80.20947
5338,Ennore Depot,13.21569,80.32090
10138,Adambakkam Annai Stores,12.98316,80.20695
10139,Adambakkam Annai Stores,12.98324,80.20700
6110,Samiyar Pannai,12.79004,80.22084
11074,Avenjipettai,13.26899,79.97474
6947,Thiruninravur Hospital,13.11604,80.02700
11076,Chettinad,12.79696,80.20312
6761,Amudurmedu,13.10034,80.05797
10425,Government School - Near Thiruninravur,13.11935,80.02911
9796,14 Shop Complex,13.09014,80.21830
7095,Jaya College,13.12487,80.04332
5281,Vyasarpadi,13.11153,80.26565
6660,Poondi Bazaar,12.92321,80.12549
9988,Urapakkam Or Ananthavalli School,12.86214,80.07323
7077,Nemilicheri,13.12440,80.05059
7100,Jaya College,13.12511,80.04377
6118,Pondur,12.79232,80.09342
7084,Nemilicheri,13.12462,80.05051
10426,Government School - Near Thiruninravur,13.11951,80.02923
6970,Dharma Raja Kovil,13.11745,80.02815
6890,Mettu Street Thiruninravur,13.11268,80.02562
6840,Erikarai Thiruninravur,13.10852,80.02304
11078,Adambakkam Bus Terminus,12.99491,80.20672
8367,Balaji Dental College,12.94429,80.20819
10244,Vivekananda House Terminus,13.05065,80.27957
10925,M.M.B.T Madhavarm Bus Terminus,13.14549,80.22146
8558,Sriperumbudur Bus Terminal,12.96633,79.94468
5831,Thiruvallur Terminal,13.14048,79.90824
9579,Thiruverkadu Bus Terminus,13.06981,80.12384
10931,Toll Gate Terminus,13.14361,80.29673
8674,Nanganallur Bus Terminus,12.97763,80.18171
6877,Vyasarpadi,13.11131,80.26548
11079,Ambattur O.T Bus Terminus,13.11981,80.14983
6099,Kelambakkam Bus Terminal,12.78649,80.22192
6839,Perambur Bus Terminus,13.10860,80.24824
10929,Perumbakkam Bus Terminus,12.88746,80.20906
5821,Poonamallee Bus Terminus,13.05183,80.09491
8779,Taramani Bus Terminus,12.98547,80.24048
6879,Korattur Bus Terminus,13.11098,80.18416
6140,Pungeri Junction,12.79876,80.14563
6141,Pungeri Junction,12.79903,80.14565
10093,Keelkattalai,12.95620,80.18542
5981,Chengalpattu Old Bus Terminal,12.69703,79.97698
6748,Tambaram Sanatorium B.T,12.93726,80.12722
5925,Iyyappanthangal Bus Terminus,13.03753,80.13477
10593,Sengalamman Kovil Or Sholavaram 4,13.22965,80.16477
6677,Sunguvarchatram,12.92528,79.87964
8785,Meeanambakkam International Airport,12.98689,80.17564
11089,Besant Nagar / Besant Beach,13.00104,80.26744
11086,Elambakkam,12.99010,79.83119
7159,Tondiarpet Power House,13.12890,80.27855
11087,Surya Narayana Road,13.12217,80.29390
11088,Rayapuram Arivagam,13.11660,80.29289
11090,Shankara Nethralaya,13.06746,80.25042
11091,Guild of Service,13.07134,80.25360
11092,Gandhi Road,12.98644,80.22293
11093,ALANDUR COURT(TOWARDS BROADWAY),12.99741,80.19323
6681,Tambaram Railway Station,12.92546,80.11695
8238,Gummidipoondi Terminal,13.40804,80.12722
11094,EGMORE WOMEN HOSPITAL (TOWARDS Broadway ),13.07136,80.25888
11095,Ishpahani Center,13.05441,80.24997
11096,MUSIC ACADEMY (TOWARDS ALWARPET),13.04647,80.26053
11097,HDFC Bank ATM,13.06936,80.26682
11098,DBS Bank ATM,13.06894,80.26731
11099,ICICI Bank ATM,13.06962,80.26672
11100,KVB Bank ATM,13.06888,80.26717
11101,HDFC Bank ATM.,13.06987,80.26889
11102,Bank Of India - ATM,13.06681,80.26882
11103,Canara Bank ATM,13.06623,80.26927
11104,SBI ATM,13.07228,80.26953
11105,Parrot Sudarson,13.07921,80.27195
11106,Cotton City (Urinal),13.11793,80.28978
11107,SHANKARA NETHRALAYA,13.06748,80.25053
10919,Ayanavaram  Bus Terminus,13.09807,80.24187
123,Shastri Bhavan,13.06685,80.24793
10924,M.M.D.A.Colony Terminus,13.06255,80.21513
5823,Thiyagarayanagar Terminus,13.03467,80.23001
9164,Saidapet,13.02267,80.22699
11108,Guindy Race Cource,13.00843,80.21338
5785,Chinnamalai Or Saidapet Court,13.01364,80.22658
7063,Senthil Nagar,13.12356,80.20255
10971,Airport Metro,12.98028,80.16373
5348,Thiyagaraya Nagar Depot,13.03388,80.23004
8571,Velachery Railway Station,12.97115,80.21914
11109,Angadu,13.22677,80.18760
10378,Vallalar Nagar BT,13.10574,80.28038
7617,Arakkambakkam,13.18060,80.06998
7127,Korattur Water Canal Road,13.12682,80.19412
10906,Adyar Gate,13.02988,80.25054
5354,Vyasarpadi Depot,13.12036,80.25921
5798,Fern Hill Apartment,13.02920,80.24563
7093,Veppampet Bus Stop,13.12485,79.99679
6115,Maraimalai Nagar Bus Stand,12.79105,80.03261
10009,Chithalapakkam Tnhb,12.89124,80.17573
8424,Chromepet,12.95166,80.14043
10562,Kanniamman Nagar,13.19177,80.09786
10465,Tondiarpet Bus Depot,13.13192,80.29215
8585,Pallavaram Bus Stand,12.96913,80.15063
5743,D.L.F.,13.02382,80.17891
5748,Egmore Railway Station - South,13.07787,80.26215
8511,Madipakkam Bus Terminus,12.96287,80.19831
5772,Mugalivakkam,13.02944,80.16838
8587,Kattrambakkam,12.96934,80.01823
6462,Perumbakkam,12.88683,80.21066
1465,Guindy Railway Station,13.00824,80.21334
5987,Karumbakkam,12.70521,80.09113
8884,St Thomas Mount Railway Station,12.99438,80.20027
7774,Padianallur,13.20421,80.17528
6962,Karukku,13.11698,80.17094
7441,Melappedu,13.15591,80.04100
6186,Dhargas Nagar,12.81423,80.08909
9096,Kotturpuram,13.01874,80.24143
168,Koyambedu Market,13.06605,80.19874
5534,Manamathi Or Acharavakkam,12.65856,80.11875
9560,Nungambakkam Railway Station,13.06657,80.23147
6246,Tamilnadu Physical Education And Sports,12.83128,80.13819
6296,Guduvancheri Bus Terminus,12.84489,80.06168
6304,Thalambur,12.84699,80.20010
7905,Mel Sembedu,13.23643,79.97865
10116,Pammal Kamarajapuram,12.97084,80.12190
5816,Foreshore Estate Bus Terminus,13.02265,80.27631
7911,New Erumai Vetti Palayam,13.23711,80.11894
6350,Neelamangalam,12.85812,80.03451
6351,Karanai,12.85867,80.19978
10222,Perambakkam,13.03729,79.81345
7553,Mathur Bus Stand,13.17146,80.24756
7930,Meyyur,13.24216,79.94452
5639,Santhome Church,13.03289,80.27755
7931,New Erumai Vetti Palayam Bus Stand,13.24233,80.12019
5685,Quaid E Millath Arts College,13.06312,80.26222
6526,Pratyangira Temple,12.90066,80.23105
1620,J J Nagar West Terminus,13.08205,80.17016
8000,Athipattu Railway Station,13.26841,80.27713
2141,Kottur,13.01749,80.24099
5929,Chinthathripet Railway Station,13.07458,80.27340
8164,Chennang Karanai,13.33675,79.98399
8181,Perumbedukuppam,13.36294,80.25340
1462,Guindy M K N Salai,13.00724,80.20972
10882,Annamalaichery,13.45702,80.26197
10945,Koyambedu School,13.07401,80.20037
8566,Pallavaram,12.96753,80.14898
8644,Pammal Sankar Nagar,12.97491,80.13299
8749,Kattrambakkam Bus Stand,12.98285,80.01529
5776,Iyappanthangal,13.03716,80.13870
8834,Pozhichalur,12.98957,80.14376
7543,Koyambakkam,13.16959,79.99232
8847,Guru Nanak College,12.99078,80.22024
6827,Ambedkar Statue,13.10719,80.15183
6870,Gkm Colony Main Road,13.11054,80.22217
6916,Ambattur Railway Station,13.11457,80.15453
7021,Poompuhar Nagar,13.12033,80.21240
7044,Menambedu,13.12199,80.16463
7116,Peravallur Kumaran Nagar,13.12626,80.22783
7186,Pudur,13.13092,80.15928
7214,Kallikuppam Tea Kadai Bus Stop,13.13311,80.17377
4848,Triplicane,13.05800,80.27843
7281,Ambatture Oragadam,13.13912,80.15567
7297,Devi Eswari Nagar,13.14000,80.14210
7320,Ella Amman Nagar,13.14199,80.05775
7417,Kathirvedu Bypass,13.15315,80.20825
7423,Odeanmani Theatre,13.15386,80.29606
7426,Pakkam Village,13.15393,80.02548
7607,Kadhavoor Bus Stand,13.17921,80.06366
7621,Jothi Nagar,13.18141,80.29881
8913,Alandur,12.99590,80.18862
8953,Besant Nagar Terminus,13.00033,80.26607
9050,Little Mount Metro,13.01394,80.22323
9186,Defence Colony,13.02596,80.19988
9249,Mangadu,13.03182,80.11108
9275,Porur Junction,13.03429,80.15570
9343,Ashok Nagar Canara Bank,13.04019,80.21257
9383,Ag Dms Metro Station,13.04486,80.24796
9453,Ice House Police Station,13.05282,80.27372
9501,Kuthambakkam,13.05829,80.02998
9536,Maduravoyal,13.06335,80.16704
9669,Dasaprakash,13.07873,80.25356
9947,Pudupakkam Or Vandaloor Road Junction,12.79976,80.19792
10069,Okk.Thoraipakm Sec.Colony,12.93744,80.24402
10131,N.Bakkam Kalaignar Nagar,12.98102,80.05695
18,Ajantha,13.04714,80.26623
10207,Perambakkam L.N.Kovil,13.03108,79.80187
10288,Nolambur Sakthinagar Bus Stop,13.07228,80.16723
10283,Koyambedu Market Or Police Station,13.06921,80.20050
10479,H.V.F Main Gate,13.13575,80.09789
10480,R.T.O Or Kolathur Shastri Nagar,13.13591,80.21657
10503,Kodungaiyur Parvathi Naga,13.14568,80.25029
10512,Madhavaram New Bus Depot,13.15217,80.22820
10510,C.R.P.F,13.15159,80.08065
10529,Manjampakkam Or Petrol Pump,13.16323,80.22768
10636,T J S Engineering College Or Kavarapett,13.36369,80.13945
11110,Mannady,13.09579,80.28637
11111,Peripheral Hospital,13.09537,80.21880
11112,Mugalivakkam A.G.S.Officers Colony,13.02096,80.16149
8406,Pallikaranai Kamachi Hospital,12.94877,80.20987
60,Kaveri Nager,13.02828,80.22723
38,D P I,13.06759,80.25359
189,Manthoppu Hr Sec School,13.02505,80.21976
6322,Madambakkam,12.85135,80.04583
5612,Icf Annexe,13.10158,80.21253
5617,Noor Hotel,13.09851,80.23525
5621,Medavakkam Kellys,13.08851,80.24195
6383,Urappakam,12.86679,80.07515
6395,Mathur,12.87086,79.93750
6400,Anna Nagar Colony,12.87138,80.10181
7936,Perumal Colony,13.24355,80.01804
5734,Kattupakkam,13.04073,80.12860
7948,Karanodai Bus Stand,13.24947,80.15628
6443,Vallakottai,12.88318,79.93560
5762,Madhya Kailash,13.00666,80.24593
6450,Sithalapakkam Mani Kadai,12.88440,80.18981
7598,Kattur,13.17733,80.13714
7954,Vengal Bazar,13.25189,80.01437
6485,Mannivakkam Tank,12.89222,80.06456
6527,Pratyangira Temple,12.90093,80.23105
5873,Andersonpet,13.07667,80.02754
6561,Bharathi Vidyalaya,12.90747,80.20192
7999,Athipattu Railway Station,13.26840,80.27710
8002,Chinna Madiyoor,13.26926,80.24094
6654,East Tambaram Convent,12.92286,80.13078
5856,Jaya Jaya Sankara International School,13.04667,80.07405
6738,Chitlapakkam,12.93618,80.14729
6745,Gangai Amman Kovil,12.93689,80.13951
6098,Kelambakkam School,12.78572,80.22139
8122,Kokkumedu,13.31720,80.20779
8142,Arani,13.33049,80.08470
8166,Deverangari Road,13.34098,80.20642
8176,Kattur,13.35540,80.28453
8209,Vanjivakkam,13.39049,80.25939
8325,Hasthinapuram Mosque,12.93949,80.15383
8372,Erumaiyur Erikarai,12.94605,80.07985
8414,Nagathamman Temple,12.94940,80.23995
8471,Puduppair,12.95851,80.02002
7526,Masthan Kovil,13.16708,80.30854
8618,Sriperumbudur Mgr Nagar,12.97245,79.95332
8649,Swamy Nagar Cycle Shop,12.97561,80.19774
8786,Ascendas It Park,12.98622,80.24672
3889,Ramalingapuram Toll,13.10914,80.26726
8863,Thillai Ganga Nagar Main Road,12.99149,80.19435
6774,Ponniyammanmedu,13.10149,80.02351
6823,Little Holy School,13.10664,80.17979
6905,Venus Theatre,13.11357,80.23568
6957,Korukkupet Bus Stand,13.11661,80.27720
6982,S R B Colony,13.11849,80.22606
7008,Avadi Check Post,13.11933,80.09454
7271,Balaji Nagar Thirunindravoor,13.13844,80.03876
7327,Madhavaram Post Box,13.14227,80.23673
7456,Puzhal Camp,13.15826,80.20369
7458,Veterinary College,13.15833,80.24387
6027,Illalur,12.73378,80.15725
7638,Kilakondaiyur,13.18393,80.02945
7639,I T C,13.18406,80.30865
7641,Vaikadu,13.18422,80.26994
7713,Kadapakkam,13.19259,80.26296
7715,Icici Bank Ennore,13.19262,80.31355
7721,Athithan Nagar,13.19366,80.15881
8882,Grama Panchayath Sirukalathur,12.99423,80.07418
8951,Mani Medu,13.00029,80.12918
8969,Water Tank,13.00284,80.24367
8983,Maduvankarai,13.00459,80.21222
8984,Parimalam Theatre,13.00464,80.10277
7837,Vichoor,13.21738,80.24896
9049,Cipet,13.01363,80.20460
5395,Anna Arch Road,13.07493,80.21790
9155,Vinayagar Kovil 1,13.02250,80.16660
9178,Evp Prabhu Avenue Bus Stop,13.02523,80.13301
9180,Moon Light,13.02529,80.17584
9201,Vigneshwara Nagar Porur,13.02814,80.15126
9202,Queensland,13.02830,80.03012
9224,Anjali Mahal,13.03105,80.19663
9225,Mappedu Old Police Station,13.03112,79.86170
9229,Indra Colony,13.03142,80.20248
9277,Burkit Road,13.03501,80.23090
9302,Retteri Gandhi Nagar,13.03629,80.14811
5522,Uthamar Gandhisalai,13.05374,80.25029
9527,Madhiravedu Pillayar Kovil,13.06232,80.13524
9552,Perumal Nagar Junction,13.06573,80.13771
9555,Parivakkam,13.06599,80.09362
9574,Gurimedai,13.06829,80.12655
9594,Nerkundram,13.07151,80.18549
9823,Gopi Krihsna Theatre,13.09289,80.22711
9841,Periya Kottamedu,13.09437,80.00659
5558,Taj Hotel Or Uthamar Gandhi Salai,13.06069,80.24747
9974,Navalur,12.84470,80.22677
9989,Ramanujar Engg College Or Balaji Plytechnic,12.86712,80.11551
9999,Agaramthen Sivan Temple,12.88452,80.15799
10148,Sammndam Nagar Main Road,12.99002,80.10323
10149,Sammndam Nagar Main Road,12.99006,80.10315
10168,Kovoor Rd Jn,13.00965,80.12117
10186,Asaramam - Near Ramapuram,13.01904,80.17816
10305,C.P.W.D Quarters,13.08222,80.19838
5586,Cit Colony,13.03876,80.25762
6366,Ponmar Colony,12.86280,80.17436
6367,Ponmar Colony,12.86285,80.17419
10451,Veppampattu Or Madha Kovil,13.12596,80.01010
5834,Thiruvallur Post Office,13.13187,79.90945
10544,Wimco Nagar,13.17902,80.30713
10560,Alinjivakkam Tank,13.19151,80.20227
5843,Aranvoyal Kuppam,13.09926,79.97512
5536,Thangal Tollgate,13.14434,80.29694
2,Broadway,13.08848,80.28404
5938,Mamallapuram,12.61744,80.19333
10785,Adambakkam A.G.S.Officer'S Colony,12.97796,80.20947
5935,Poonjeri Koot Road,12.61480,80.17177
5942,Mandapam Market,12.62078,80.19447
5940,Poonjeri Government Hospital,12.61899,80.18018
5936,Poonjeri,12.61663,80.17494
5937,Poonjeri,12.61684,80.17537
7728,Elite Matriculation Higher Secondary,13.19506,80.17707
5941,Mandapam,12.62014,80.19323
7729,Elite Matriculation Higher Secondary,13.19516,80.17704
7727,Gandhi Nagar Redhills,13.19502,80.16818
5939,Mamallapuram,12.61735,80.19398
5944,Mandapam,12.62087,80.19237
5945,Savadi,12.62602,80.17125
5943,Mandapam Market,12.62079,80.19451
25,Ashok Pillar,13.03513,80.21088
5948,Koothavakkam School,12.63130,80.17209
23,Aranganathan Subway,13.02894,80.22410
5949,Payyanur,12.64096,80.17284
24,Aranganathan Subway,13.02864,80.22417
5950,Sculpture Arts College,12.64113,80.19933
5951,Sculpture Arts College,12.64114,80.19950
5952,Payyanur,12.64142,80.17297
7731,Palavoyal,13.19544,80.18539
7732,Palavoyal,13.19549,80.18534
7733,Bammedukulam,13.19604,80.16365
5947,Mamallapuram E C R,12.62859,80.19492
10787,Adambakkam A.G.S.Officer'S Colony-1,12.98140,80.20666
44,Double Tank,13.03857,80.20150
43,Dms,13.04697,80.24830
5538,Lakshmi Amman Koil,13.13535,80.29343
5954,Devaneri,12.65130,80.20619
5956,Pattipulam Arasamaram,12.66183,80.20928
5957,Pattipulam Arasamaram,12.66215,80.20918
42,Dms,13.04698,80.24861
7734,Bammedukulam,13.19617,80.16358
40,Data Udupi Hotel,13.03673,80.19843
46,Egmore Womens Hospital,13.07191,80.25936
7735,Red Hills Thiruvallur Road Junction,13.19630,80.18098
5953,Payyanur Rice Mill,12.64772,80.17437
45,Egmore Railway Station,13.07736,80.26128
5961,Ammur Colony,12.67590,80.14510
5962,Kalavakkam,12.68221,80.15514
5963,Pattipulam Colony,12.68640,80.21594
5964,Pattipulam Colony,12.68648,80.21617
5965,Chiruthavoor Junction,12.68847,80.15866
5966,Pattipulam,12.68890,80.21717
5967,Pattipulam,12.68915,80.21706
7736,Red Hills Thiruvallur Road Junction,13.19638,80.18095
7737,Perathur Bus Stop,13.19639,79.97292
7739,Gandhi Nagar West,13.19661,80.16094
10189,Moulivakkam L&T,13.01920,80.14254
10789,M.F.L,13.17822,80.27013
5960,Manamathi School,12.66498,80.12979
5968,Alathur Colony,12.69119,80.18052
5969,Alathur Colony,12.69125,80.18038
64,Lic - Gp Road,13.06541,80.26763
5970,Thiruvadaisoolam School,12.69286,80.03182
5971,Thiruvadaisoolam School,12.69289,80.03182
5972,Krishna Karanai,12.69328,80.21885
5973,Krishna Karanai,12.69353,80.21913
7740,Gandhi Nagar West,13.19672,80.16095
7741,Arakkambakkam Road Junction,13.19676,80.08020
7742,Dwarka Nagar Elementary School,13.19690,80.26942
9269,Gopala Krishna Theatre,13.03392,80.16039
9270,Kondencherri Church,13.03395,79.83377
5975,Sidco Industrial Estate Alathur,12.69447,80.18113
5976,Mullipakam Junction,12.69592,80.06928
5977,Mullipakam Junction,12.69592,80.06948
5978,Ganapureswarar Temple,12.69618,80.02993
5979,Ganapureswarar Temple,12.69620,80.02995
7743,Arakkambakkam Road Junction,13.19699,80.08019
7745,Theyampakkam,13.19775,80.22863
5980,Chengalpattu Old Bus Terminal,12.69693,79.97670
5982,Sai Baba Kovil,12.69813,80.22104
5984,Dolphin City,12.70038,80.22196
95,Nungambakkam Police Station,13.05934,80.24240
5985,Sulerikadu,12.70496,80.22374
90,Nagathamman Koil,13.04410,80.20896
5986,Karumbakkam,12.70510,80.09161
94,Nesapakkam,13.03811,80.19285
5988,Sulerikadu,12.70594,80.22367
92,Nandanam Metro,13.03173,80.24096
5989,Chembakkam Junction,12.70956,80.12551
7746,Theyampakkam,13.19791,80.22861
91,Nandanam Metro,13.03165,80.24113
93,Nandanam Ymca,13.02887,80.23630
7747,Rajakalam,13.19816,80.15406
7748,Rajakalam,13.19828,80.15404
7749,Vilangadupakkam,13.19859,80.22043
5983,Sai Baba Kovil,12.69842,80.22101
5990,Chembakkam Junction,12.70961,80.12531
103,Periyar Salai,13.05340,80.23682
5991,Kottamedu,12.71060,80.11057
5992,Kottamedu,12.71068,80.11050
5993,Vengur Junction,12.71126,80.09870
5994,Vengur Junction,12.71127,80.09854
5995,Pulipakkam,12.71144,79.97903
5996,Sunnambu Kalvai,12.71153,80.13767
7750,Mondiyaman Nagar,13.19878,80.17901
7751,Mondiyaman Nagar,13.19903,80.17915
7752,Kannampalayam,13.19953,80.22613
7753,Kannampalayam,13.19959,80.22612
127,Sivan Park,13.04099,80.20527
126,Sivan Park,13.04104,80.20509
125,Simpson,13.07053,80.27388
122,Shanthi Theatre,13.06723,80.27048
124,Simpson,13.07109,80.27401
5997,Pulipakkam,12.71153,79.97877
5998,Sunnambu Kalvai,12.71156,80.13756
5541,Kasimedu,13.12435,80.29452
5999,Madayathur,12.71296,80.14539
121,Shanthi Theatre,13.06773,80.26893
6001,Illalur Junction,12.71406,80.15021
6002,Illalur Junction,12.71407,80.14996
7754,Malima Nagar,13.19972,80.21133
7755,Malima Nagar,13.19975,80.21132
5542,Kasimedu Police Station,13.12080,80.29371
6003,Perur Colony,12.71427,80.22637
6004,Perur Colony,12.71464,80.22671
6006,Thandalam,12.71550,80.18776
6007,Rajakulipettai,12.71650,79.98059
6008,Rajakulipettai,12.71684,79.98090
6009,Perur,12.71837,80.22796
10797,Vallalar Nagar,13.10603,80.28000
6005,Thandalam,12.71510,80.18770
133,Sterling Road Chetpat,13.06203,80.24327
130,Srinivasa Theater,13.03111,80.22362
7756,Jeeva Nagar,13.20103,80.14349
131,Srinivasa Theater,13.03121,80.22368
7757,Nagathamman Kovil,13.20123,80.21944
7758,Jeeva Nagar,13.20127,80.14318
7759,Nagathamman Kovil,13.20139,80.21961
6010,Manamathi Koot Road,12.71853,80.17718
6011,Perur,12.71874,80.22829
146,Westly School,13.05725,80.26473
6012,Thiruporur Bus Stand,12.72214,80.18726
6014,Paranur Toll Plaza,12.72418,79.98178
6015,Paranur Toll Plaza,12.72425,79.98200
6016,Kandhaswami Temple Tank Thiruporur,12.72460,80.18790
6017,Kandhaswami Temple Tank Thiruporur,12.72489,80.18802
6018,Periya Nemmeli,12.72579,80.23124
6019,Periya Nemmeli,12.72613,80.23117
7760,Nagathamman Kovil,13.20150,80.21908
7761,Vichoor Echakuzhi,13.20158,80.26984
7762,Indira Nagar,13.20175,80.02940
147,Womens Christian College,13.06795,80.24832
6020,Thiruporur Kovil,12.72983,80.18901
6021,Thiruporur Kovil,12.72991,80.18895
88,Mylapore Tank,13.03401,80.26785
165,Elango Nagar,13.05325,80.19232
166,Koyambedu Chathiram,13.07155,80.20275
171,Lakshmi Appartment,13.05258,80.18944
6022,Thiruporur Kovil,12.73037,80.18884
174,Mariamman Kovil,13.03988,80.19059
6023,Pudukalpakkam,12.73040,80.23308
6024,Pudukalpakkam,12.73073,80.23296
175,Meenakshi College,13.04221,80.18975
176,Meenakshi College,13.04223,80.18979
7764,Indira Nagar,13.20188,80.02949
7763,Manali New Town Bus Stand,13.20183,80.27596
8885,Sirukalathur Kozhi Pannai,12.99439,80.07502
173,Mariamman Kovil,13.03983,80.19056
6025,Shiva Temple Kattur,12.73332,80.16147
98,Padma Shri School,13.03886,80.19954
6028,Illalur,12.73382,80.15730
177,Natesan Nagar,13.05736,80.19416
178,Natesan Nagar,13.05762,80.19445
7766,Edapalayam,13.20223,80.13938
7767,Edapalayam,13.20248,80.13885
6029,Kattur,12.73487,80.13774
5546,Clive Battery,13.09930,80.29398
6031,Paranur,12.73809,79.98825
6033,Shri Sathya Sai Hospital Ammapettai,12.73910,80.13183
6030,Kattur,12.73488,80.13782
6040,Kalavakkam School,12.74427,80.20036
6034,Shri Sathya Sai Hospital Ammapettai,12.73916,80.13182
7768,Ernavoor Kuppam,13.20270,80.31717
7770,Ernavoor Kuppam,13.20277,80.31719
200,Aachi Masala Foods,13.08525,80.13742
6035,Ammapettai Temple,12.73957,80.12871
6036,Ammapettai Temple,12.73960,80.12866
6037,Kalavakkam,12.74179,80.19744
6039,Vada Nemmeli,12.74383,80.23848
5547,Beach Station,13.09408,80.29227
6038,Vada Nemmeli,12.74360,80.23822
7771,Eswaran Temple,13.20281,80.13049
7772,Vichoor Echakuzhi,13.20355,80.26984
5355,Ayanavaram Maternity Hospital,13.09897,80.23022
6041,Venbedu,12.74753,80.14207
6042,Venbedu,12.74755,80.14215
6043,Kilven Road,12.75094,80.10645
6044,Kilven Road,12.75107,80.10643
6045,Ssn College,12.75144,80.20412
6046,Nellikuppam Colony,12.75444,80.10601
6047,Nellikuppam Colony,12.75486,80.10609
7773,Vishnuvakkam,13.20417,79.97309
7775,Vishnuvakkam,13.20431,79.97297
243,Adyar Gate,13.02906,80.24932
6048,Tirutheri,12.75540,80.00133
6049,Tirutheri,12.75594,80.00198
6050,Therukupattu,12.75610,80.24308
6051,Therukupattu,12.75642,80.24302
7777,Padianallur,13.20450,80.17473
6052,Vijaya Shanthi Lotus Pond,12.75976,80.20885
7776,Post Office Ennore,13.20435,80.31459
6053,Vijaya Shanthi Lotus Pond,12.76014,80.20887
6054,Singaperumal Kovil,12.76127,80.00374
6055,Singaperumal Kovil,12.76136,80.00344
6056,Thiruvidanthai,12.76302,80.24554
6057,Singaperumal Kovil,12.76306,80.00383
6058,Thiruvidanthai,12.76342,80.24551
7778,Post Office Ennore,13.20459,80.31454
7779,Maavu Mill,13.20473,80.27648
7780,Alamathi Cattle Farm,13.20582,80.11711
6059,Kizh Kalvai,12.76775,80.10837
6060,Kizh Kalvai,12.76794,80.10842
6061,Chinna Kayar,12.76867,80.15355
6062,Mel Kalvai,12.76937,80.10807
6063,Kayaar,12.76946,80.14451
6064,Kayaar,12.76949,80.14450
6065,Mel Kalvai,12.76957,80.10795
6066,Chenganmal Road Junction,12.77080,80.21321
6067,Chenganmal Road Junction,12.77089,80.21307
7781,Echankuzhi Amman Kulam,13.20591,80.25063
7782,Alamathi Cattle Farm,13.20596,80.11724
7783,Echankuzhi Amman Kulam,13.20604,80.25059
5552,Viveks And Company,13.04725,80.23308
6069,Periyammal Nagar,12.77386,80.20113
6070,Periyammal Nagar,12.77396,80.20134
6071,Chinnama Nagar,12.77425,80.19593
6068,Vembakkam,12.77277,79.95498
5366,Pallavan Salai,13.07378,80.27647
5367,Wallajah Road (Anna Statue),13.06848,80.27192
6072,Chinnama Nagar,12.77433,80.19608
6073,Thaiyur,12.77462,80.19387
6074,Thaiyur,12.77464,80.19402
6075,Karuneelam Road Junction,12.77529,80.05398
7785,Sirugavur,13.20625,80.21720
7786,Nehru Nagar Ennore,13.20658,80.31519
7787,Nehru Nagar Ennore,13.20688,80.31547
6076,Karuneelam Road Junction,12.77536,80.05396
6077,Keelkaranai,12.77681,80.01009
6078,Keelkaranai,12.77688,80.01052
6081,Kovalam Chamjarai,12.77889,80.24820
8,Saidapet West Bus Stand,13.02437,80.21301
6080,Kalivanthapattu,12.77700,80.06885
6082,Ashthinapuram,12.77903,80.10734
4,K.K.Nagar,13.03603,80.20547
7,Saidapet West Bus Stand,13.02425,80.21269
7790,Ashok Leyland Ennore,13.20993,80.31654
6079,Kalivanthapattu,12.77692,80.06887
9,Adambakkam Depot,12.99486,80.20665
7789,Alamathi,13.20791,80.10940
5334,Iyyapanthangal Depot,13.03709,80.13445
6083,Ashthinapuram,12.77911,80.10713
6084,Elavanthangal,12.78064,80.21738
6085,Elavanthangal,12.78064,80.21723
6086,Salt Office,12.78213,80.22945
6087,Salt Office,12.78218,80.22940
6088,Gudalur Government School,12.78348,80.04495
20,Egmore Station Mmda,13.07611,80.26414
26,Ashok Pillar,13.03354,80.21209
27,Ayappan Kovil,13.03924,80.19715
29,Church Park School,13.05432,80.25382
28,Central Dental College,13.08299,80.28199
7791,Alamathi Sub Station,13.21020,80.09943
7792,Ashok Leyland Ennore,13.21030,80.31685
8886,Madha Engineering College,12.99439,80.08508
6089,Gudalur Government School,12.78360,80.04495
6090,Kovalam Kelambakam Road Junction,12.78400,80.24530
6091,Kovalam Kelambakam Road Junction,12.78408,80.24545
6092,Kayar Eachangadu,12.78499,80.15299
53,High Court,13.08501,80.28345
6093,Kovalam Kelambakam Road Junction,12.78507,80.24495
62,Liberty,13.05411,80.22724
180,Sai Nagar,13.05983,80.19549
181,Sri Keingkaiamman Alayam,13.04995,80.18903
6094,Kayar Eachangadu,12.78523,80.15309
7793,Parveen Travels,13.21032,80.19526
7794,Parveen Travels,13.21032,80.19513
6095,Kelambakkmm Police Station,12.78533,80.21998
6100,Kelambakkmm General Hospital,12.78649,80.22069
56,Kamdar Nagar,13.05378,80.23500
6096,Kelambakkmm Police Station,12.78540,80.21990
5335,Basin Bridge Depot,13.10247,80.27380
5336,Chrompet-1 Depot,12.94733,80.14118
57,Kamdar Nagar,13.05357,80.23503
55,Hotel Everest,13.08062,80.26771
58,Kannammapettai Burial Ground,13.03035,80.22846
59,Kannammapettai Burial Ground,13.03044,80.22809
7796,New Karikkalvakkam,13.21103,79.98273
7797,Thamaraipakkam,13.21113,80.02922
7798,New Karikkalvakkam,13.21123,79.98272
6103,Ford,12.78676,80.01515
6104,Ford,12.78703,80.01503
6105,Kovalam,12.78830,80.24324
6106,Kovalam,12.78839,80.24338
6107,Pavendar Salai,12.78930,80.03120
74,Mahalingapuram,13.05405,80.23198
73,Mahalingapuram,13.05401,80.23277
72,M G R Nagar Market,13.03650,80.20148
69,M G R Nagar,13.03709,80.19602
68,Luz Corner,13.03842,80.26771
7799,Vanianchathiram,13.21165,80.09338
7800,Periya Kuppam,13.21172,80.32356
75,Mandaveli Market,13.02931,80.26586
6108,Pavendar Salai,12.78951,80.03133
6109,Stange,12.78960,80.01690
6111,Samiyar Pannai,12.79032,80.22065
6112,Stange,12.79053,80.01701
6113,Bakery Corner,12.79091,80.03508
6114,Bakery Corner,12.79096,80.03502
85,Munusamy Salai,13.03882,80.19296
81,Mettupalayam Market,13.02854,80.21985
5539,Apollo Or Cholera Hospital,13.12866,80.29087
6142,Maraimalai Nagar,12.79949,80.02328
7802,Periya Kuppam,13.21195,80.32355
7803,Thamaraipakkam,13.21197,80.02924
7804,Hinduja Foundries,13.21248,80.31815
6116,Butterfly Company,12.79206,80.21738
6117,Butterfly Company,12.79219,80.21740
6119,Vishnupriya Nagar,12.79232,80.03554
6120,Vishnupriya Nagar,12.79233,80.03561
104,Periyar Salai,13.05317,80.23732
101,Park Station,13.08154,80.27332
102,Park Station,13.08135,80.27319
152,Teynampet Metro,13.03712,80.24651
100,Pallavan Salai,13.07542,80.27639
7807,Hinduja Foundries,13.21276,80.31868
7805,Poochi Athipet,13.21255,80.08745
6122,Pondur,12.79279,80.09315
6123,Balaji Mahal,12.79296,80.02514
6124,Balaji Mahal,12.79309,80.02522
6126,Samiyar Gate,12.79493,80.02018
115,Ram Theatre,13.05156,80.21706
112,Pt Rajan Road,13.03927,80.20494
6127,Rail Nagar 12th Street,12.79509,80.03629
6128,Rail Nagar 12th Street,12.79510,80.03636
7808,Dhass,13.21293,80.07823
7809,Dhass,13.21308,80.07835
7810,Jaya Suriya Engineering College,13.21330,80.06915
5341,Padiyanallur Depot,13.20411,80.17434
6121,Walajabad Bus Stand,12.79262,79.81717
114,Pudur High School,13.04196,80.21627
6129,Samiyar Gate,12.79538,80.02022
6130,Kunnukadu Alamaram,12.79561,80.24121
6131,Chettinad Hospital,12.79595,80.22281
6132,Chettinad Hospital,12.79608,80.22296
22,Anand Theatre,13.05641,80.25719
6133,Kunnukadu Alamaram,12.79657,80.24113
6134,Walajabad Railway Station,12.79761,79.81941
7811,Jaya Suriya Engineering College,13.21344,80.06911
179,Sai Nagar,13.05972,80.19532
183,Vembuliamman Koil,13.04636,80.18936
7812,Karanipataih,13.21355,80.06333
7814,Koduvally,13.21360,80.05784
6135,Walajabad Railway Station,12.79761,79.81933
6136,Rail Nagar 9th Street,12.79809,80.03702
6137,Rail Nagar 9th Street,12.79811,80.03696
6138,Pungeri,12.79839,80.13859
6139,Pungeri,12.79841,80.13862
7815,Infant Jesus Shrine Manali New Town,13.21364,80.27173
7816,Karanipataih,13.21367,80.06343
7817,Koduvally,13.21373,80.05768
6143,Pudupakkam,12.79950,80.19818
5394,Nelson Manickam Road,13.07436,80.22092
6144,Pudupakkam,12.79957,80.19782
5402,Muthuswamy Road,13.08227,80.28152
7819,Redhills Rto Office,13.21460,80.17009
6145,Rail Nagar 4th Street,12.79997,80.03807
6146,Rail Nagar 4th Street,12.80002,80.03801
6147,Maraimalai Nagar,12.80005,80.02320
7818,Magaral,13.21449,80.05106
7820,Magaral,13.21461,80.05107
6148,Sekkadu,12.80040,79.82049
6149,Sekkadu,12.80084,79.82082
6150,Hindustan College,12.80114,80.22360
6151,Kannivaakam,12.80129,80.08673
6152,Hindustan College,12.80138,80.22351
5414,Cmbt Emergency Exit,13.06928,80.20587
5410,Cmbt,13.06991,80.20496
6153,Kannivaakam,12.80148,80.08667
6154,Mettu Theru,12.80214,80.03955
6155,Mettu Theru,12.80218,80.03950
7821,Eraiyur Junction,13.21464,79.93946
7822,Eraiyur Junction,13.21469,79.93941
6157,Padur,12.80533,80.22411
6159,Muttukadu Boat House,12.80585,80.24276
6156,Kumizhi,12.80278,80.12156
7824,Magaral Kandigai,13.21528,80.04764
7823,Redhills Rto Office,13.21474,80.17028
6160,Muttukadu Boat House,12.80592,80.24309
6161,Anjaneyar Temple Pudupakkam,12.80601,80.18933
6162,Palla Theru,12.80603,80.04170
6163,Palla Theru,12.80608,80.04165
6164,Anjaneyar Temple Pudupakkam,12.80613,80.18940
6165,Cosmo City,12.80620,80.20065
6166,Cosmo City,12.80638,80.20057
5441,Kamarajar Avenue 2nd Street,13.00123,80.25658
5442,Kalashetra Road,12.99039,80.25604
5444,Rajiv Gandhi Salai (Madya Kailas),13.00664,80.24748
5445,Gandhi Mandapam Road,13.00680,80.24032
5446,Kasthuribai Nagar Road,13.00671,80.25171
419,Ammur Colony,12.67597,80.14507
6167,Srm Kattur School,12.80685,80.04209
6168,Srm Kattur School,12.80691,80.04204
7826,Eid Parry Fertilizer Factory,13.21580,80.32593
7827,Vilappakkam,13.21583,79.98640
7828,Vilappakkam,13.21595,79.98635
7829,Eid Parry Fertilizer Factory,13.21598,80.32589
6169,Pudupakkam Panchayat Office,12.80843,80.20036
6170,Military Camp Mambakkam,12.80860,80.18630
6171,Pudupakkam Panchayat Office,12.80863,80.20061
6172,Military Camp Mambakkam,12.80878,80.18629
6173,Oothukadu Cross Road,12.80881,79.82949
6174,Kattankulathur,12.80905,80.02914
7830,Sothupakkam,13.21605,80.19652
7831,Sothupakkam,13.21608,80.19644
7832,Perungavoor,13.21680,80.21912
10809,Maduravoyal,13.06294,80.16693
6175,Oothukadu Cross Road,12.80913,79.82950
6176,Kattankulathur,12.80924,80.02960
6178,Kayarambedu,12.81042,80.07665
6182,Pudupakkam,12.81114,80.20381
6179,Akshaya Padur,12.81094,80.22808
6181,Pudupakkam,12.81104,80.20336
6180,Akshaya Padur,12.81102,80.22795
7833,Perungavoor,13.21694,80.21918
7834,Velliyur School,13.21702,80.00561
7835,Velliyur School,13.21709,80.00512
5752,Adyar Signal,13.00725,80.25836
9271,Kondencherri Church,13.03406,79.83374
7836,Vichoor,13.21732,80.24893
502,Anna University,13.00832,80.23347
6184,Nathanallur,12.81329,79.84780
6185,Nathanallur,12.81351,79.84774
148,Womens Christian College,13.06781,80.24846
6187,Sivanandha Gurukulam,12.81425,80.03280
9336,Cit Colony,13.03935,80.25746
495,Anna Square Bus Terminus,13.06653,80.28438
6183,Kolathur,12.81165,80.15938
153,Teynampet Metro,13.03717,80.24630
159,Nesapakkam,13.03943,80.19140
5498,Dr Mgr Janaki College Of Arts And Science,13.01613,80.25953
6188,Sivanandha Gurukulam,12.81451,80.03261
6189,Amman Thottam,12.81457,80.20492
6190,Amman Thottam,12.81477,80.20511
7838,Velliyur Hospital,13.21781,80.01062
89,Mylapore Tank,13.03432,80.26807
6191,Srm Chemical,12.81507,80.04855
6192,Srm Chemical,12.81515,80.04852
6193,Shriram Shankari Apartments,12.81588,80.08709
7839,Velliyur Hospital,13.21792,80.01053
5370,Venkatanarayana Road (Nandhanam),13.03103,80.23978
5502,Elephant Gate Street,13.09233,80.27523
16,Avadi Depot,13.12070,80.10172
15,Mandaveli Depot,13.02246,80.27631
17,Ayanavaram Depot,13.09883,80.24058
12,Ambattur Depot,13.09902,80.16932
34,Cooptex,13.06772,80.25497
35,Cooptex,13.06777,80.25525
32,City Union Bank,13.04114,80.19926
30,Cit Nagar,13.02925,80.23073
31,Cit Nagar,13.02989,80.23085
19,Ajantha,13.04701,80.26646
5511,North Boag Road (Ma.Po.Ce),13.03988,80.24402
5513,Mahalingapuram Main Road,13.06109,80.23751
6194,Maduranallur,12.81687,79.86058
6195,Maduranallur,12.81707,79.86051
6196,Kolathur Junction,12.81817,80.16048
6197,Kolathur Junction,12.81824,80.16044
7840,Nappalayam,13.21822,80.27250
7841,Nappalayam,13.21825,80.27282
54,Hotel Everest,13.08081,80.26811
61,Kaveri Nager,13.02870,80.22709
50,Express Avenue,13.06048,80.26537
51,Express Avenue,13.06042,80.26544
184,Vembuliamman Koil,13.04639,80.18941
6198,Kazhipattur,12.81899,80.23052
7842,Kummanur,13.21846,80.19700
5337,Chrompet-2 Depot,12.94729,80.14500
65,Lic,13.06468,80.26634
66,Lic,13.06301,80.26386
77,Mathews Church,13.04168,80.20906
67,Luz Corner,13.03865,80.26757
6199,East Potheri,12.81928,80.05166
6200,East Potheri,12.81930,80.05179
7843,Kummanur,13.21852,80.19705
37,Corporation School Office,13.05663,80.24271
6201,Dhargas Nagar,12.81943,80.08670
36,Corporation School Office,13.05650,80.24249
39,D P I,13.06768,80.25334
41,Data Udupi Hotel,13.03691,80.19854
573,Arumbakkam Ph Road,13.07658,80.20433
155,Anand Theatre Or Thousand Light,13.05739,80.25726
6,Mandaveli Bus Terminus,13.02695,80.26056
6207,Tiruchariy Pudupakkam,12.82120,80.20376
6202,Kazhipattur,12.81964,80.23039
6203,Potheri,12.81986,80.03674
7844,Sivan Kovil,13.21897,80.03372
6204,Potheri,12.82010,80.03659
6205,Deveriambakkam,12.82038,79.87033
6206,Deveriambakkam,12.82041,79.87061
7845,Sivan Kovil,13.21908,80.03372
63,Liberty,13.05378,80.22727
71,M G R Nagar Market,13.03630,80.20159
6209,Tiruchariy Pudupakkam,12.82133,80.20379
70,M G R Nagar,13.03732,80.19598
84,Munusamy Salai,13.03854,80.19280
109,Pondicherry Guest House,13.04187,80.19365
116,Ramasamy Salai Amman Koil,13.04144,80.19676
80,Mettupalayam,13.03231,80.22020
79,Mettupalayam,13.03224,80.22006
14,Kalaignar Nagar Depot,13.03459,80.20509
5,Mandaveli Bus Terminus,13.02661,80.26574
117,Royapettah Hospital,13.05436,80.26414
119,Royapettah Police Station,13.05249,80.26381
7847,Thamaraipakkam Junction,13.22032,80.02843
6208,Tiruchariy Pudupakkam,12.82130,80.20363
6211,Kavanoor,12.82249,80.02517
6212,Perumanttunallur,12.82259,80.07748
7846,Thalan Kuppam,13.22022,80.32713
150,Payaigada Evening Bazar,13.08555,80.28017
7848,Thalan Kuppam,13.22045,80.32731
6210,Kavanoor,12.82245,80.02512
6213,Perumanttunallur,12.82260,80.07755
144,Velankanni Matric Higher Secondary School,13.03873,80.20843
143,Velankanni Matric Higher Secondary School,13.03859,80.20846
137,Trustpuram,13.05284,80.22151
140,Valluvar Kottam,13.05380,80.24229
139,Valluvar Kottam,13.05377,80.24202
142,Vanavil,13.04075,80.24705
120,Saamiyar Madam,13.04683,80.21893
86,Jayaraj Theatre,13.02467,80.21684
129,Spensor Plaza Tvs,13.06090,80.26127
157,Westly School,13.05741,80.26510
118,Royapettah Police Station,13.05239,80.26375
6214,Rural Colony,12.82450,80.19470
6215,Rural Colony,12.82453,80.19495
6216,Kalaivani Nagar 1st Street,12.82470,80.05549
6217,Kalaivani Nagar 1st Street,12.82472,80.05543
6218,Parameshwari Nagar,12.82491,80.07026
7849,Valluvar Nagar,13.22050,80.31977
7851,Valluvar Nagar,13.22070,80.31963
7850,Thamaraipakkam Junction,13.22057,80.02854
172,Lakshmi Appartment,13.05258,80.18948
96,Nungambakkam Police Station,13.05946,80.24251
97,Nurse Quarters,13.08228,80.27864
149,Nandanam Ymca,13.02885,80.23663
151,Royapettah Hospital,13.05445,80.26436
161,Chinmaya Nagar,13.06266,80.19701
6220,Bajanai Kovil,12.82565,80.05577
160,Chinmaya Nagar,13.06294,80.19710
170,Koyambedu Police Station,13.07010,80.20109
87,Jayaraj Theatre,13.02471,80.21651
6219,Parameshwari Nagar,12.82496,80.07027
10814,Music College Annamalai Puram,13.01892,80.26312
6221,Bajanai Kovil,12.82570,80.05571
6222,Srm College,12.82579,80.04103
7853,Vilambakkam,13.22080,79.97407
7852,Thamaraipakkam Junction,13.22074,80.02840
107,Pilot Theatre,13.05088,80.26408
5339,Kundrathur Depot,12.98076,80.10278
105,Pf Office,13.04906,80.26472
186,Annai Vellakanni Eng. College,13.02021,80.21559
185,Annai Vellakanni Eng. College,13.02020,80.21556
187,Five Light,13.01963,80.21947
5540,Irumbu Company,13.12540,80.29188
7855,Thamaraipakkam Junction,13.22087,80.02843
6223,Sipcot Industrial Park,12.82590,80.21920
6224,Sipcot Industrial Park,12.82598,80.21918
167,Koyambedu Market,13.06615,80.19873
182,Sri Keingkaiamman Alayam,13.04998,80.18908
6225,Vaniyanchavadi Padma Adarsh School,12.82621,80.23141
158,Central Depot,13.07608,80.27604
6226,Vaniyanchavadi Padma Adarsh School,12.82635,80.23128
7854,Vilambakkam,13.22086,79.97403
169,Koyambedu Police Station,13.06914,80.20009
10815,Jayanthi Theatre,12.98768,80.25624
110,Power House Kodambakkam,13.05246,80.22025
111,Power House Kodambakkam,13.05185,80.22030
145,Vetnary Hospital,13.05282,80.23977
156,Vetnary Hospital,13.05253,80.24016
191,Nurse Quarters,13.08224,80.27836
134,T N Sports Authority,13.07556,80.25894
136,Thiruvalluvar Statue,13.04120,80.26825
6227,Srm College,12.82698,80.04161
108,Pilot Theatre,13.05094,80.26412
128,Spensor Plaza Tvs,13.05948,80.25992
164,Elango Nagar,13.05275,80.19208
188,Five Light,13.01965,80.21944
6228,Om Sakthi Nagar,12.82703,80.07464
6229,Om Sakthi Nagar,12.82705,80.07470
7856,Vijaya Nallur,13.22109,80.16796
10816,Kalavakkam,12.67036,80.13763
6230,Rajeshwari Nagar,12.82738,80.05615
5373,Cit Nagar 3rd Main Road,13.02665,80.23305
5384,Ritherdon Road,13.07938,80.25877
141,Vanavil,13.04149,80.24742
21,Amudam,13.03978,80.19332
7857,Kummanur Colony,13.22110,80.19668
5406,Nerkundram Pathai,13.05450,80.21136
5413,Pt Rajan Road (Laxman Suruthi),13.04429,80.21228
5416,Water Works Road (Cipet),13.01376,80.20427
5437,Air Port Exit Gate,12.97990,80.16293
5440,Mahatma Gandhi Road,12.99692,80.25583
5449,Anna University,13.00791,80.23498
5438,Indira Nagar 1st Avenue,12.99949,80.25613
5450,New Boag Road,13.03074,80.23073
5466,Puliyur Main Road (Gogulam Point),13.05342,80.22417
5469,Mahalingapuram Mainroad,13.05378,80.23463
5470,Valluvar Kottamhigh Road,13.05262,80.24172
5478,Srinivasa Road,13.04268,80.23588
5494,2nd Main Road (Kaliyappa Hospital),13.02712,80.25655
6231,Rajeshwari Nagar,12.82743,80.05609
6232,Mambakkam,12.82762,80.16493
7858,Kummanur Colony,13.22123,80.19671
6233,Mambakkam,12.82770,80.16512
5481,Indira Nagar 2nd Avenue,12.99441,80.24973
6235,Mambakkam,12.82775,80.16510
6234,Mambakkam,12.82773,80.16502
6236,Thalayampattu,12.82835,79.87755
6237,Keerapakkam,12.82836,80.12919
6239,Thalayampattu,12.82861,79.87801
7860,Kothari,13.22243,80.32796
7861,Kothari,13.22261,80.32786
6240,Tcs Gate 1,12.83072,80.21932
6241,Tcs Gate 1,12.83074,80.21950
6242,Thailavaram,12.83076,80.04611
7859,Vijaya Nallur,13.22136,80.16761
6238,Keerapakkam,12.82839,80.12912
6243,Sipcot,12.83086,80.22956
6244,Thailavaram,12.83097,80.04591
7862,Kamaraj Nagar,13.22351,80.32012
7863,Kamaraj Nagar,13.22353,80.32008
6245,Sipcot,12.83099,80.22935
6247,Thropathi Amman Kovil,12.83129,80.05459
6248,Thropathi Amman Kovil,12.83133,80.05464
6249,Muttukadu,12.83161,80.24053
6250,Putru Kovil,12.83161,80.07148
7864,Thalankuppam Beach Road,13.22484,80.32780
7865,Thalankuppam Beach Road,13.22484,80.32788
7866,Voc Nagar,13.22514,80.32080
6251,Putru Kovil,12.83164,80.07157
762,Basin Bridge,13.10477,80.27112
6252,Muttukadu,12.83169,80.24037
6253,Arungal,12.83189,80.09829
6254,Arungal,12.83196,80.09827
6255,Varanavasi,12.83212,79.88362
6256,Varanavasi,12.83216,79.88340
7867,Voc Nagar,13.22584,80.32182
7868,Old Nappalayam,13.22586,80.27360
6257,Samathuvapuram,12.83254,80.15947
6258,Mambakkam Rice Mill,12.83257,80.16624
6259,Samathuvapuram,12.83261,80.15959
6260,Mambakkam Rice Mill,12.83275,80.16625
6261,Vallanchery,12.83373,80.05481
6262,Vallanchery,12.83374,80.05487
7869,Old Nappalayam,13.22588,80.27391
7870,Ulaganathapuram,13.22642,80.32427
7871,Ulaganathapuram,13.22661,80.32447
7872,Thazhan Kuppam,13.22709,80.32679
5844,Murukanchery,13.09817,79.97921
10825,Butt Road Temp Bus Stop,13.01500,80.19953
5561,West Kk Nagar Depot,13.04419,80.19362
6263,Siruseri,12.83520,80.20090
6264,Siruseri,12.83550,80.20101
6265,Sivaji Nagar,12.83562,80.05527
5562,Double Tank,13.04060,80.20244
777,Bells Road,13.06400,80.27818
778,Bells Road,13.06411,80.27829
6266,Sivaji Nagar,12.83562,80.05521
6267,Malai Medu,12.83615,80.06572
6268,Malai Medu,12.83616,80.06581
7873,Thazhan Kuppam,13.22712,80.32673
7874,Arumandai Road Junction,13.22820,80.21834
5563,Masjid - Andhar Bank,13.05369,80.22785
6269,Egattur,12.83673,80.22850
6271,Wipro,12.83714,80.05563
6272,Egattur,12.83719,80.22806
6273,Thiruthavali,12.83733,80.03153
6274,Thiruthavali,12.83736,80.03149
6275,Mambakkam Sivan Kovil,12.83807,80.16940
7876,Arumandai Road Junction,13.22827,80.21810
7877,Arumandai Road Junction,13.22830,80.21784
6270,Wipro,12.83711,80.05568
5846,Puduchatram,13.08934,80.00927
7875,Arumandai Road Junction,13.22826,80.21790
5564,Shankara Nethralaya,13.06750,80.25116
6276,Mambakkam Sivan Kovil,12.83825,80.16940
6277,T N Police Bus Stop,12.83917,80.13992
6278,T N Police Bus Stop,12.83930,80.14009
6280,Kandigai,12.83987,79.92041
6281,Vit University,12.84010,80.15280
7880,Anaikattu,13.22870,80.02669
6279,Srinivasapuram,12.83983,80.05552
6282,Kunnarakkan,12.84031,79.89614
6284,Kandigai,12.84036,79.92098
6285,Kunnarakkan,12.84037,79.89582
6286,Vit University,12.84041,80.15280
7881,Anaikattu,13.22893,80.02669
7882,Marampedu,13.22981,80.21127
6283,Srinivasapuram,12.84032,80.05562
6287,Meera Nagar,12.84154,80.24069
6288,Meera Nagar,12.84155,80.24048
6289,Nandhivaram Goverment Girls Hsc School,12.84178,80.06143
6290,Nandhivaram Goverment Girls Hsc School,12.84180,80.06139
6291,Ezhichur Koot Road Junction,12.84229,79.92798
6292,Ezhichur Koot Road Junction,12.84267,79.92821
7883,Marampedu,13.22984,80.21141
7884,Marampedu Tea Shop,13.23065,80.21117
7885,Marampedu Tea Shop,13.23067,80.21108
5566,Yellow Pages,13.04444,80.26848
6293,Kattur,12.84460,80.08696
6295,Guduvancheri Railway Station,12.84484,80.05919
6297,Melakottaiyur,12.84561,80.14900
7886,Vellivoyalchavadi,13.23074,80.27410
7887,Vellivoyalchavadi,13.23124,80.27381
7888,Kandigai Marampedu,13.23303,80.20799
6294,Kattur,12.84471,80.08686
6298,Melakottaiyur,12.84566,80.14884
6299,Kattur Alamaram,12.84587,80.08644
6302,Kattur Alamaram,12.84634,80.08672
6303,Thalambur,12.84690,80.20028
7889,Kandigai Marampedu,13.23306,80.20806
7890,Rajapalayam,13.23364,79.94614
6305,Trisakthi Kovil,12.84806,80.21150
6306,Trisakthi Kovil,12.84809,80.21169
6307,Kakkan Nagar,12.84829,80.21623
6308,Kakkan Nagar,12.84837,80.21626
6301,Nallambakkam,12.84596,80.12371
6300,Nallambakkam,12.84594,80.12371
6309,Thalambur Road Junction,12.84844,80.20797
6310,Thalambur Road Junction,12.84857,80.20822
7891,Rajapalayam,13.23368,79.94621
7892,Budur Hospital,13.23400,80.20667
7893,Budur Hospital,13.23410,80.20672
5569,Cid Quarters,13.02657,80.26391
6311,Brindha Colony,12.84964,80.05393
5570,Cid Quarters,13.02649,80.26415
6312,Brindha Colony,12.84968,80.05406
6313,Brindha Colony,12.84973,80.05394
6314,Ags Complex Navalur,12.85022,80.22669
5847,Ima College,13.08701,80.01699
6315,Ags Complex Navalur,12.85040,80.22641
6316,Kanathur,12.85042,80.24123
6317,Kandigai,12.85097,80.14059
7894,Thirunillai Road Junction,13.23412,80.22785
7895,Thirunillai Road Junction,13.23414,80.22761
893,Central Wall Tax Road,13.08343,80.27616
6320,Oragadam Road Junction,12.85128,79.94263
894,Central Wall Tax Road,13.08357,80.27602
6321,Madambakkam,12.85132,80.04591
6318,Guduvancheri Eb Office,12.85117,80.06582
6319,Kandigai,12.85122,80.14015
7898,Sholavaram 3,13.23528,80.16234
6323,Guduvancheri Eb Office,12.85140,80.06555
6324,Oragadam Road Junction,12.85156,79.94251
6325,Kuthanur Road Junction,12.85164,80.04114
6326,Kuthanur Road Junction,12.85168,80.04114
7899,Sholavaram 3,13.23530,80.16242
7900,Kondakarai,13.23616,80.27416
7901,Sembedu,13.23633,79.98081
6327,Oragadam Road Junction,12.85183,79.94271
6328,Kanathur,12.85189,80.24118
6329,K Vasudevan College Of Engineering And Technology,12.85305,80.17125
6330,K Vasudevan College Of Engineering And Technology,12.85307,80.17118
6331,Karanai Colony,12.85348,80.19950
6332,Karanai Colony,12.85354,80.19934
7902,Sembedu,13.23635,79.98081
7903,Sozhipalayam,13.23637,80.17150
7904,Mel Sembedu,13.23640,79.97864
6333,Akshaya Apartments Guduvanchery,12.85401,80.06776
6334,Akshaya Apartments Guduvanchery,12.85451,80.06790
7906,Kondakarai,13.23668,80.27386
6337,Vattambakkam Govt School,12.85483,79.97192
7907,Budur Ambedkar Statue,13.23670,80.20303
6336,Navalur Scb 1,12.85459,79.97244
6335,Navalur Scb 1,12.85471,79.97239
5575,New Woodlands,13.04462,80.26301
7908,Budur Ambedkar Statue,13.23675,80.20307
6338,Vattambakkam Govt School,12.85473,79.97192
6341,Bharathiyar Matriculation School,12.85509,80.03700
6342,Bharathiyar Matriculation School,12.85515,80.03703
7909,Sozhipalayam,13.23687,80.17198
7910,New Erumai Vetti Palayam,13.23710,80.11887
6343,Palakka Company,12.85683,80.06965
5576,Music Academy,13.04708,80.26082
6345,Kavalkazhani Church,12.85709,79.96974
6346,Kavalkazhani Church,12.85710,79.96972
6347,Rathinamangalam,12.85792,80.13365
6348,Rathinamangalam,12.85799,80.13379
7912,Kathirvedu,13.23714,80.00545
7913,Kathirvedu,13.23716,80.00545
6349,Neelamangalam,12.85810,80.03448
5577,Gowdia Mutt,13.05087,80.26246
6352,Karanai,12.85873,80.19985
6353,Urapakkam Main Road,12.85985,80.07255
6354,Urapakkam Main Road,12.85993,80.07258
6355,Vattambakkam,12.86029,79.96036
7915,Karumariamman Kovil,13.23731,80.16648
7916,Pagalmedu,13.23777,80.02027
983,Chinnamalai B.S,13.01394,80.22646
7914,Karumariamman Kovil,13.23726,80.16638
986,Chinnandi Madam,13.13643,80.25554
6356,Tagore Engineering College Rathinamangalam,12.86041,80.13147
6357,Vattambakkam,12.86043,79.96028
7917,Pagalmedu,13.23780,80.02031
7918,Budur,13.23802,80.19888
6359,Ponmar,12.86068,80.17322
6361,Tagore Engineering College Rathinamangalam,12.86080,80.13090
6362,Semmancheri,12.86166,80.22640
6360,Ponmar,12.86060,80.17334
5578,Redhills Bus Terminus,13.18551,80.19125
992,Chiruthavoor Junction,12.68839,80.15854
6364,Ottiyambakkam,12.86231,80.19135
7552,Karkil Puram,13.17144,80.29008
7554,Mathur Bus Stand,13.17146,80.24744
6363,Ottiyambakkam,12.86223,80.19127
5580,Mylapore,13.03662,80.26761
5581,Vmc Street,13.04443,80.26681
5582,Avm Rajeshwari Thirumana Mandapam,13.04453,80.26526
5583,Narada Gana Sabha,13.04099,80.25856
5585,Anjaneyar Temple,13.03878,80.25898
5584,Cit Colony,13.03924,80.25750
7919,Budur,13.23812,80.19884
7920,Sembedu Post Office,13.23852,79.99542
5587,F.C.I Old,13.03811,80.25588
5590,Bharathi Nagar,13.05065,80.23362
5589,Power House T Nagar,13.04109,80.24048
6369,Vengadamangalam Childrens Park,12.86489,80.14938
5593,Vadapalani Kovil,13.05020,80.21352
7555,Kanniamman Kovil,13.17176,80.21967
5588,Aalayamman Temple,13.03969,80.24455
5595,Panagal Park,13.04214,80.23312
5596,Holy Angels School,13.04037,80.24155
5598,Aalayamman Temple,13.03964,80.24557
5599,S.I.E.T College,13.03555,80.24793
5600,F.C.I Old,13.03821,80.25573
6370,Anandbagh,12.86502,80.24248
6371,Anandbagh,12.86509,80.24229
7921,Sembedu Post Office,13.23854,79.99543
5594,Bharathi Nagar,13.05010,80.23374
6372,Madurapakkam Road Junction,12.86523,80.17573
5601,Isabella Hospital,13.03941,80.26169
5602,Vivekananda College,13.03984,80.26416
5603,Mylapore,13.03661,80.26773
6373,Madurapakkam Road Junction,12.86527,80.17558
1048,Concorde Or Chellammal College,13.01186,80.22195
7922,Sholavaram,13.23952,80.16084
7923,Sholavaram,13.23959,80.16087
6374,Vengadamangalam Childrens Park,12.86545,80.14975
5607,Tamil Nadu Open University Or Panagal Maligai,13.02114,80.22568
5610,Kalpana Hotel,13.10321,80.20768
5611,Kallukkadai,13.10209,80.21101
7924,Arumandai School,13.23974,80.21694
6375,Vengadamangalam Villege,12.86560,80.15007
6376,Vengambakkam Bus Stand,12.86667,80.12775
6379,Urappakam,12.86780,80.07585
5619,Shenoy Nagar Or Pulla Avenue,13.07685,80.22503
5620,Medavakkam Mental Hospital,13.09117,80.24096
6377,Urappakkam Railway Station,12.86739,80.06988
6378,Urappakkam Railway Station,12.86743,80.06984
7925,Arumandai School,13.23988,80.21688
7926,Orakkadu,13.24115,80.18391
6380,Madurapakkam,12.86801,80.17113
5623,Purasaivakkam Tank,13.08366,80.25460
5615,Railway Quarters,13.10010,80.22531
5622,Motcham Aysha Hospital Or Motcham Theatre,13.08490,80.25019
5624,Alagappa Schools,13.08271,80.25451
1091,D1 Police Station,13.06799,80.27245
1090,D1 Police Station,13.06784,80.27225
6381,Anna Nagar,12.86803,80.06378
7927,Orakkadu,13.24117,80.18370
5625,Dharma Prakash Or Mctm School,13.08079,80.25486
5628,Egmore Court,13.07302,80.26200
5629,Pudupet,13.07022,80.26607
7642,Nasarath,13.18423,79.94663
5626,Shenoy Nagar Or Pulla Avenue,13.07688,80.22488
5630,Anand Theatre Or Thousand Light,13.05733,80.25750
6384,Nariyambakkam,12.86858,79.97230
6385,Uthandi,12.86858,80.24334
7928,Periamullaivoyal,13.24120,80.23555
5627,Saidapet Veterinary Hospital Or Raja Hostel,13.02544,80.22971
6386,Nariyambakkam,12.86876,79.97235
5632,Semmozhi Poonga,13.05046,80.25274
5633,Stella Marys College,13.04822,80.25400
5634,Ramakrishna Mutt Road,13.02562,80.26547
5636,Ramakrishna Mutt Road,13.02558,80.26559
6387,Uthandi,12.86893,80.24363
6388,Tellus Avenue,12.86942,80.19140
6389,Tellus Avenue,12.86945,80.19134
7929,Periamullaivoyal,13.24124,80.23547
5637,D.G.P Office,13.04307,80.27975
5638,All India Radio Light House,13.03915,80.27894
5641,Kuil Thoppu,13.02996,80.27689
5640,Employment Office,13.03097,80.27735
6390,Urapakkam Flyover,12.86975,80.07613
6391,Urapakkam Flyover,12.86989,80.07609
6392,Kolapakkam Junction,12.87041,80.10697
5643,Ponniamman Kovil Street,13.01799,80.24124
5644,Kuil Thoppu,13.02969,80.27659
5645,Employment Office,13.03127,80.27740
5647,All India Radio Light House,13.03904,80.27866
5648,D.G.P Office,13.04325,80.27777
6393,Mathur,12.87052,79.93729
6394,Kolapakkam Junction,12.87058,80.10689
5646,Santhome Church,13.03285,80.27747
5649,Ponniamman Kovil Street,13.01802,80.24124
5651,Stella Marys College,13.04744,80.25415
5652,Semmozhi Poonga,13.05059,80.25226
6396,Crescent Lake Junction,12.87090,79.97963
5654,Pudupet,13.07016,80.26595
6397,Crescent Lake Junction,12.87104,79.97939
6398,Satyabhama University,12.87105,80.22641
7932,G R Palayam,13.24253,80.27424
7933,G R Palayam,13.24256,80.27391
5655,Egmore Court,13.07285,80.26201
5656,Music College Annamalai Puram,13.02030,80.26268
5657,Music College Annamalai Puram,13.01907,80.26293
5659,Alagappa Schools,13.08181,80.25413
1167,Dr Supermarket Mogapair West,13.08166,80.16715
6401,Adhanur,12.87138,80.05359
7934,Pudupakkam,13.24327,80.21553
9721,T C L,13.08276,79.90844
5664,Sayani Theatre Aynavaram,13.09765,80.23974
5661,Abirami Theatre,13.08567,80.24659
5662,Medavakkam Kellys,13.08829,80.24196
5663,Medavakkam Mental Hospital,13.09052,80.24076
7935,Pudupakkam,13.24335,80.21543
6402,Anna Nagar Colony,12.87158,80.10148
6403,Satyabhama University,12.87195,80.22683
5667,Railway Quarters,13.09987,80.22523
5672,Kalpana Hotel,13.10309,80.20765
5673,J.J.Nagar West,13.08264,80.17007
6406,Sarapanchery,12.87296,79.98508
6407,Serapanacheri,12.87326,79.98533
6405,Vengambakkam Village,12.87276,80.13282
5671,Kallukkadai,13.10207,80.21085
5670,Icf Annexe,13.10147,80.21251
5675,T S Krishna Nagar,13.08811,80.18379
5676,Collector Nagar,13.08788,80.18893
5678,Blue Star,13.08502,80.21157
5679,Anna Nagar Roundtana,13.08475,80.21696
5680,Anna Arch,13.07634,80.21819
6408,Ramakrishna Nagar,12.87357,80.19190
6409,Ramakrishna Nagar,12.87359,80.19201
7939,Karanodai,13.24699,80.15754
7938,Vazhuthalambedu,13.24603,80.23149
5674,Wavin,13.08863,80.17188
6429,Nethaji Nagar,12.87966,80.20595
5681,Kannagi Statue Or Presidency College,13.05770,80.28156
5682,Metha Nagar,13.06800,80.22685
5683,Choolaimedu,13.06684,80.23016
5684,Loyala College,13.06455,80.23502
5687,Iit Madras Or Guindy National Park,13.00683,80.24098
6413,Vanchuvancheri,12.87535,79.99697
7940,Karanodai,13.24705,80.15758
6411,Vgk Green City,12.87459,80.14866
6412,Vgk Green City,12.87461,80.14863
5688,Loyala College,13.06456,80.23471
5689,Choolaimedu,13.06665,80.23017
5690,Metha Nagar,13.06787,80.22676
5691,Iit Madras Or Guindy National Park,13.00679,80.23999
5692,Anna Arch,13.07645,80.21786
5693,Anna Nagar Roundtana,13.08454,80.21710
6414,Vanchuvancheri,12.87539,79.99594
6415,Kandigai Junction,12.87648,80.17067
6416,Kandigai Junction,12.87649,80.17056
7941,North Chennai Thermal Power Station,13.24789,80.31757
5700,Dunlop,13.10618,80.15237
6417,Kumaran Nagar,12.87764,80.22665
5695,Thirumangalam Eb Office,13.08708,80.19795
5697,T S Krishna Nagar,13.08797,80.18344
5699,Canara Bank,13.11040,80.15227
6418,Nucleus Company,12.87781,80.21929
6419,Nucleus Company,12.87781,80.21971
7942,North Chennai Thermal Power Station,13.24795,80.31783
5698,Wavin,13.08850,80.17198
5703,Aavin Dairy Ambattur,13.10873,80.17765
5702,Pattravakkam,13.10936,80.16751
5696,Collector Nagar,13.08775,80.18915
5704,Bhaktavatsalam Memorial College,13.10825,80.18335
5705,Uco Bank,13.10242,80.18650
5706,Padi Lucas Tvs,13.10138,80.18974
5701,Telephone Exchange,13.10160,80.16205
6420,Kumaran Nagar,12.87793,80.22698
6421,Arasankazhani,12.87842,80.19272
6422,Arasankazhani,12.87856,80.19283
7943,Mabuskanpetai,13.24807,80.21519
5708,Chinthamani,13.08462,80.22454
6424,Vandalur Zoo,12.87905,80.08065
5711,Chetpet,13.07034,80.24207
5712,M.O.P Vaishnava College,13.05501,80.24962
7944,Mabuskanpetai,13.24811,80.21512
6425,Chemmenchery Arch,12.87956,80.21132
5717,Gemini Sun Plaza,13.04982,80.24783
6423,Vandalur Zoo,12.87891,80.08026
6426,Chemmenchery Arch,12.87950,80.21096
5715,Pasumpon Muthuramalingam Devar Road,13.02721,80.25350
5716,Alwarpet,13.03556,80.25471
5718,M.O.P Vaishnava College,13.05536,80.24916
6428,Murugan Nagar,12.87960,80.13609
7945,North Chennai Thermal Power Station,13.24816,80.31756
9735,Kilpauk Garden,13.08418,80.23407
5719,Chetpet,13.06981,80.24199
5720,Pachaiyappas College,13.07583,80.23469
5724,Padi Lucas Tvs,13.10106,80.18992
5722,Chinthamani,13.08480,80.22419
5723,Thirumangalam,13.09094,80.19845
5725,Uco Bank,13.10315,80.18620
6430,Nethaji Nagar,12.87974,80.20596
7556,Kanniamman Kovil,13.17179,80.21982
7557,Amarithapuram,13.17192,80.13554
5730,Dunlop,13.10619,80.15224
5727,Aavin Dairy Ambattur,13.10863,80.17706
5728,Pattravakkam,13.10928,80.16750
5731,Ambattur Canara Bank,13.11031,80.15212
5729,Telephone Exchange,13.10167,80.16213
1300,Ethiraj College,13.06441,80.25913
6433,Nedugundram,12.88023,80.10889
1299,Ethiraj College,13.06428,80.25905
7946,Vgp Medu,13.24921,80.13936
5732,Parivakkam Signal,13.05678,80.09797
5736,Iyappanthangal,13.03753,80.13882
5733,Saveetha Hospital,13.05317,80.12393
5737,Ramachandra Hospital,13.03693,80.14204
6435,Vandalur Zoo,12.88095,80.08059
6436,Kovilanchery,12.88250,80.17054
7947,Vgp Medu,13.24924,80.13927
5735,E.S.I Hospital Ayanavaram,13.09480,80.24121
6437,Salamangalam Colony,12.88251,80.00830
5738,Porur,13.03631,80.15323
5739,Porur Junction,13.03465,80.15654
5740,Porur Shakthi Nagar,13.03158,80.16507
5741,Mugalivakkam,13.02925,80.16930
5742,Dlf,13.02497,80.17676
5744,Miot Hospital,13.02083,80.18448
1337,Gandhi Mandapam,13.00763,80.24021
6438,Salamangalam Colony,12.88251,80.00870
7558,Amarithapuram,13.17197,80.13562
7596,Mrf Beach Road,13.17688,80.31331
5746,Military Quarters,13.01096,80.19584
5747,Butt Road,13.00867,80.19798
5745,Nandambakkam,13.01661,80.18995
6439,Kovilanchery,12.88253,80.17069
6440,Erikarai Agaramthen,12.88257,80.16378
6441,Erikarai Agaramthen,12.88272,80.16395
6442,Vallakottai,12.88304,79.93542
9784,Parrys Corner,13.08870,80.29000
5751,Adyar Gandhi Nagar,13.00681,80.24946
5753,M.G.R Janaki College Or Sathya Studio,13.01623,80.25951
5754,Dasaprakash Hotel Or Petrol Pump,13.07981,80.25462
5755,Rani Meyyammai School,13.02278,80.26361
5756,Rani Meyyammai School,13.02205,80.26342
6444,Bvm School,12.88351,80.19957
6445,Bvm School,12.88353,80.19962
7949,Athur Erumai Vetti Palayam,13.24952,80.14767
7950,Karanodai Church,13.24963,80.16208
7955,Railway Bridge,13.25194,80.29350
5757,Dasaprakash Hotel Or Petrol Pump,13.07963,80.25452
5758,M.G.R Janaki College Or Sathya Studio,13.01596,80.25973
7970,Gnayaru,13.26141,80.21593
6448,Zion School,12.88403,80.13558
5761,Adyar Gandhi Nagar,13.00667,80.24984
7951,Karanodai Church,13.24965,80.16201
7952,Athur Erumai Vetti Palayam,13.24972,80.14825
6446,Agaramthen,12.88360,80.15414
5766,Maduvankarai,13.00459,80.21229
5765,City Centre Or Kalyani Hospital,13.04400,80.27181
5767,Butt Road,13.00729,80.19710
5768,Military Quarters,13.01083,80.19561
5769,Nandambakkam,13.01669,80.18919
6451,Sithalapakkam Mani Kadai,12.88442,80.18993
7953,Athipattu Pudhu Nagar,13.25152,80.30351
6449,Zion School,12.88404,80.13563
5770,Miot Hospital,13.02058,80.18442
5771,D.L.F.,13.02364,80.17874
5773,Porur Shakthi Nagar,13.03143,80.16484
5775,Ramachandra Hospital,13.03652,80.14304
7597,Kattur,13.17732,80.13718
6452,Salamangalam,12.88449,80.01233
6453,Salamangalam,12.88469,80.01218
6454,Ponniamman Kovil,12.88575,80.22701
5774,Porur,13.03525,80.15470
5778,Kattupakkam,13.04082,80.12786
5779,Chola Hotel Or Music Academy,13.04619,80.25673
5780,Karayanchavadi,13.04646,80.11113
5781,Kallarai,13.04911,80.10571
5782,Poonamallee Government Hospital,13.05022,80.09929
6456,Padappai,12.88625,80.02104
6457,Indira Nagar Chithalapakkam,12.88629,80.18854
6458,Indira Nagar Chithalapakkam,12.88638,80.18848
5783,Chola Hotel Or Music Academy,13.04583,80.25698
5784,Saidapet Metro,13.02376,80.22819
5786,Anandhapuram,13.03737,80.25607
1427,Gosha,13.06066,80.27760
6459,Panaiyur,12.88643,80.24582
5787,Ampa Skywalk Or Arun Hotel,13.07463,80.22123
7956,Vengal Bazar,13.25195,80.01443
5792,Aminjikarai,13.07401,80.22577
5791,Thadandar Nagar,13.02442,80.22842
5788,Little Mount,13.01560,80.22507
1428,Gosha,13.06096,80.27778
6460,Padappai,12.88665,80.02176
8945,Theradi,12.99891,80.09678
7957,Railway Bridge,13.25198,80.29349
5793,Adyar Gandhi Nagar,13.00945,80.25516
5789,Ampa Skywalk Or Arun Hotel,13.07446,80.21962
5794,B Ramachandra Adithanar Road,13.00973,80.24897
5795,Cancer Hospital,13.01085,80.24888
5797,Aminjikarai,13.07386,80.22560
6463,Alapakkam,12.88684,80.10712
5799,Pasumpon Muthuramalingam Devar Road,13.02731,80.25385
6464,Sithalapakkam,12.88703,80.18423
6466,Alapakkam,12.88707,80.10708
7958,Athipattu Pudhu Nagar,13.25198,80.30412
5802,Government Gym,13.02378,80.25887
6467,Sithalapakkam,12.88710,80.18430
5800,Greenways Road,13.02279,80.25283
5801,Kamaraj Salai Bishop Garden,13.01974,80.25971
5803,Ramakrishna Nagar Thiruvengadam Street,13.02365,80.26231
1461,Guindy Bus Terminus,13.00928,80.21128
7959,Don Bosco Matriculation School Karanodai,13.25238,80.15544
6469,Lydia Matriculation School,12.88781,80.13635
5806,Ramakrishna Nagar Thiruvengadam Street,13.02366,80.26255
5807,May Flower Garden,13.02221,80.26061
5808,Kamaraj Salai Bishop Garden,13.01979,80.25976
5809,Greenways Road,13.02279,80.25281
5810,1st Avenue,13.04512,80.21219
6471,Oodai,12.88855,80.22746
7960,Vallur,13.25244,80.28734
6470,Oodai,12.88836,80.22711
5812,Cancer Hospital,13.01087,80.24890
5815,Island Ground,13.07467,80.28618
6472,Kizh Padappai,12.88856,80.02928
6473,Pathuvanchery,12.88865,80.14516
6474,Kizh Padappai,12.88870,80.02919
6475,Mannivakkam Kulam Bus Stop,12.88872,80.06475
7961,Vallur,13.25254,80.28714
7962,Don Bosco Matriculation School Karanodai,13.25292,80.15531
5814,Secretariat,13.08002,80.28825
6476,Pathuvanchery,12.88878,80.14514
5817,Villivakkam Bus Stand,13.10542,80.20804
1489,High Court,13.08846,80.28736
6478,Jaya Nagar,12.89036,80.18457
7963,Sothupermedu,13.25416,80.17144
6479,Jaya Nagar,12.89038,80.18448
6480,Meppadu Hospital,12.89080,80.14092
5818,Ambattur O.T Bus Stand,13.11966,80.14993
5819,Foreshore Estate Bus Stop,13.02573,80.27515
6481,Meppadu Hospital,12.89090,80.14096
6482,Mannivakkam School,12.89126,80.06942
6483,Mannivakkam School,12.89151,80.06948
6484,Vinayagar Temple,12.89216,80.13815
7964,Sothupermedu,13.25433,80.17157
7965,Pattamandiri,13.25527,80.27482
7966,Pattamandiri,13.25569,80.27458
6487,Vandalur Gate,12.89229,80.08586
6486,Vinayagar Temple,12.89224,80.13811
6488,Vandalur Gate,12.89287,80.08504
6489,Thiruvanchery,12.89322,80.14104
6491,Valluvar Nagar Chithalapakkam,12.89330,80.18361
7967,Melur,13.25732,80.27505
7968,Melur,13.25741,80.27492
6492,Valluvar Nagar Chithalapakkam,12.89330,80.18344
6493,Thiruvanchery,12.89338,80.14125
6494,Vandalur,12.89339,80.08211
6495,Vandalur,12.89356,80.08199
6496,Mannivakkam,12.89366,80.06479
6497,Vallam,12.89378,79.93216
7969,Gnayaru,13.26134,80.21601
7971,Janapanchatram Koot Road Junction,13.26188,80.15516
7972,Janapanchatram Koot Road Junction,13.26203,80.15487
6501,Mannivakkam Road Junction,12.89430,80.06374
6498,Kanni Kovil,12.89395,80.18031
5824,Fort Railway Station,13.08221,80.28243
6499,Kanni Kovil,12.89400,80.18017
6500,Vallam,12.89422,79.93221
6502,Karasangal,12.89437,80.04694
6503,Karasangal,12.89448,80.04688
7612,Tks Nagar,13.17988,80.29767
7613,Kilkondaiyur,13.17995,80.04425
5825,Eldams Road,13.03881,80.25156
6506,Noothancheri Cross Road,12.89562,80.17369
6507,Sadanandapuram,12.89613,80.11003
6508,Plaza Quarters,12.89653,80.19806
6509,Plaza Quarters,12.89653,80.19803
7973,Thanakulam,13.26214,80.12391
7974,Nandiyambakkam,13.26217,80.27431
7975,Nandiyambakkam,13.26220,80.27443
6504,Mannivakkam Road Junction,12.89450,80.06428
7614,Kilkondaiyur,13.18002,80.04423
6505,Noothancheri Cross Road,12.89555,80.17368
6510,Lakshmi Ammal Engineer College,12.89666,80.14159
6511,Chitlapakkam Koot Road,12.89694,80.18222
7978,Seemapuram,13.26232,80.25047
6513,Lakshmi Ammal Engineer College,12.89701,80.14142
6514,Chitlapakkam Koot Road,12.89758,80.18189
6515,Chitlapakkam Koot Road,12.89767,80.18222
7976,Thanakulam,13.26226,80.12403
7977,Seemapuram,13.26231,80.25042
6512,Sadanandapuram,12.89697,80.10973
5827,Taj Hotel Or Uthamar Gandhi Salai,13.05946,80.24774
6516,Akkarai,12.89771,80.24704
6517,Noothencheri,12.89775,80.16719
6518,Noothencheri,12.89783,80.16714
6519,Akkarai,12.89784,80.24708
6520,Karasangal Erikarai,12.89854,80.04102
6521,Karasangal Erikarai,12.89863,80.04081
7981,Pandikavanur,13.26290,80.13491
7982,Pandikavanur,13.26303,80.13479
7979,Vengal College,13.26252,80.02530
7980,Vengal College,13.26289,80.02624
5828,Taylors Road,13.07642,80.23764
6522,Vengaivasal Road Chithalapakkam,12.89915,80.18298
6523,Vengaivasal Road Chithalapakkam,12.89955,80.18285
6524,Natesan School,12.89993,80.06513
6525,Natesan School,12.90033,80.06503
8959,Thandalam,13.00113,80.11955
7983,Siddhi Vinayagar Temple,13.26333,80.14351
7984,Siddhi Vinayagar Temple,13.26343,80.14334
8958,Thandalam,13.00112,80.11944
6529,Hcl Company,12.90161,80.21826
6530,Hcl Company,12.90175,80.21837
6531,Nesamani Nagar,12.90199,80.19810
6532,Gold Winner,12.90199,80.18409
6533,Nesamani Nagar,12.90201,80.19808
6534,Sathiyamurthy Nagar Camp Road,12.90207,80.14215
7987,Balaji Theatre Minjur,13.26408,80.26999
5829,12th Main Road,13.08508,80.20463
7986,Malanthur,13.26348,79.95900
6535,Gold Winner,12.90209,80.18399
5830,Anna University,13.00741,80.23668
6536,Sathiyamurthy Nagar Camp Road,12.90228,80.14196
6537,Kodikambam,12.90233,80.10087
6538,Kodikambam,12.90243,80.10085
6539,Kulakarai Venkaivasal,12.90249,80.16865
7988,Balaji Theatre Minjur,13.26468,80.26844
7989,Kamarajar Port,13.26609,80.32723
8961,Sri Om Nagar,13.00155,79.93417
5833,Tnstc Bus Depot,13.13541,79.90867
5835,Goverment Hospital Tiruvallur,13.12756,79.91054
5832,Thiruvallur,13.13899,79.90759
5837,Manavala Nagar Junction,13.11099,79.91027
5838,Ondikuppam,13.11044,79.91812
6540,Kulakarai Venkaivasal,12.90287,80.16837
6541,Kozhi Pannai,12.90329,80.15856
6542,Kozhi Pannai,12.90330,80.15848
7990,Kamarajar Port,13.26618,80.32731
7991,Manjankarani,13.26684,80.11460
5839,Venkathur,13.10750,79.93007
5840,Putlur,13.10775,79.93798
5841,Tirur,13.10654,79.95885
5842,Aranvoyal,13.10081,79.96706
6545,Vadakal,12.90513,79.93172
5849,Vellavedu,13.06800,80.03696
6543,Als Nagar,12.90401,80.15441
6544,Als Nagar,12.90410,80.15430
7615,Tks Nagar,13.18011,80.29767
5845,Mettukandigai,13.09546,79.99302
5851,Keelmanabedu,13.06410,80.04511
5853,Thirumazhisai Koil,13.05457,80.06157
5857,Nazarathpet,13.04752,80.08074
5854,Kundumedu,13.05146,80.06518
5855,Nazarathpet Police Check Post,13.04584,80.07073
5850,Mel Menambedu,13.06666,80.03977
6549,Lakshmi Nagar,12.90580,80.06627
6546,Global Hospital,12.90534,80.20802
5848,Nemam,13.07840,80.02548
6547,Global Hospital,12.90547,80.20808
6548,Lakshmi Nagar,12.90570,80.06634
7992,Manjankarani,13.26686,80.11430
5858,Varadaraja Puram,13.04918,80.08694
5859,Kathipara,13.00864,80.20232
5860,Kathipara,13.00737,80.20166
5861,Senneerkuppam Electronic Board House,13.05243,80.11267
5862,Senneerkuppam,13.05638,80.11386
5863,Varadaraja Puram,13.04891,80.08662
6550,Vadakal,12.90601,79.93200
5864,Nazarathpet,13.04719,80.08043
6551,Vengaivasal Ph Centre,12.90625,80.16718
7993,Nerkundram,13.26709,80.18317
7994,Nerkundram,13.26720,80.18327
5866,Nazarathpet Police Check Post,13.04562,80.07062
5867,Kundumedu,13.05126,80.06515
5869,Thirumazhisai Bus Stand,13.05499,80.05728
5874,Nemam,13.07837,80.02544
5870,Keelmanabedu,13.06392,80.04513
5871,Mel Menambedu,13.06668,80.03932
6554,Perungalattur,12.90647,80.09618
6552,Veerabadra Nagar,12.90639,80.18895
5872,Vellavedu,13.06788,80.03688
7995,Minjur B D O Office,13.26755,80.26462
5875,Puduchatram,13.08928,80.00921
5877,Murukanchery,13.09805,79.97901
5878,Aranvoyal Kuppam,13.09919,79.97485
5879,Aranvoyal,13.10072,79.96699
5880,Tirur,13.10664,79.95854
5881,Putlur,13.10760,79.93784
5882,Venkathur,13.10738,79.93009
5883,Ondikuppam,13.11032,79.91803
6555,Vengaivasal Ph Centre,12.90648,80.16725
6556,Veerabadra Nagar,12.90673,80.18893
6557,Madambakkam Anna Nagar,12.90673,80.15940
7996,Minjur B D O Office,13.26770,80.26465
8962,Akash Nagar Water Tank,13.00179,80.12942
5884,Manavala Nagar Junction,13.11089,79.91016
5887,Thiruvallur Post Office,13.13166,79.90937
5886,Goverment Hospital Tiruvallur,13.12755,79.91039
5889,Thiruvallur,13.13875,79.90747
5888,Tnstc Bus Depot,13.13515,79.90860
6558,Madambakkam Anna Nagar,12.90676,80.15933
6559,Christian Church,12.90683,80.19974
6560,Christian Church,12.90684,80.19971
7997,Alinjivakkam,13.26827,80.15339
7998,Alinjivakkam,13.26832,80.15311
1722,Kalaivanar Arangam,13.06623,80.27556
1732,Kalavakkam,12.74186,80.19728
6562,Bharathi Vidyalaya,12.90762,80.20192
6563,Perumbakkam,12.90765,80.19888
6564,Perumbakkam,12.90781,80.19891
5890,Karayanchavadi,13.04718,80.11185
1723,Kalaivanar Arangam,13.06624,80.27482
6565,Perungalatgur Lake View Stop,12.90878,80.09859
6566,Varadarajapuram,12.90881,80.06876
1734,Kalavakkam School,12.74433,80.20025
1740,Kaliyappa Hospital,13.02723,80.25459
6567,Varadarajapuram,12.90897,80.06866
8001,Periyar Nagar,13.26918,80.03390
5891,Parivakkam Signal,13.05648,80.09767
6569,Soumya Nagar,12.90957,80.19132
6570,Soumya Nagar,12.90959,80.19113
6571,Pallavan Nagar,12.91089,80.19620
5892,Kotturpuram,13.02302,80.24276
6572,Pallavan Nagar,12.91090,80.19642
6573,Mudichur Bus Stand,12.91122,80.06984
6574,Mudichur Bus Stand,12.91146,80.06979
6575,Babu Nagar Medavakkam,12.91246,80.19182
6576,Babu Nagar Medavakkam,12.91249,80.19195
6577,Indira Nagar Camp Road,12.91250,80.14310
8003,Chinna Madiyoor,13.26928,80.24098
8005,Jnn Engineering College,13.26966,80.10925
6578,Indira Nagar Camp Road,12.91251,80.14333
6579,Karapakkam,12.91327,80.22938
6580,Karapakkam,12.91350,80.22904
9872,Pattalam,13.09741,80.25795
6582,Vgp Golden Beach,12.91393,80.25012
8006,Jnn Engineering College,13.26967,80.10954
8007,Attaipalayam,13.26996,80.19669
8008,Attaipalayam,13.27015,80.19662
8974,A Nagar,13.00331,80.12027
6583,Attai Company,12.91439,80.07160
6584,Attai Company,12.91443,80.07146
6585,Madanapuram,12.91544,80.07735
6586,Madanapuram,12.91560,80.07723
6587,Mullai Nagar Eranavoor,12.91610,80.05772
6588,Mullai Nagar Eranavoor,12.91616,80.05779
6589,Manimangalam Police Station,12.91617,80.03982
8010,Edapalayam,13.27307,80.26135
8011,Edappalayam,13.27330,80.26134
6591,Medavakkam Junction,12.91630,80.19427
6590,Manimangalam Police Station,12.91622,80.03972
6592,Irumbuliyur,12.91650,80.10583
6593,Manimangalam Road Junction,12.91662,80.04265
8012,Kannigaipair Church,13.27380,80.10076
8013,Kannigaipair Church,13.27387,80.10073
8014,Kannigaipair Bazar,13.27446,80.09493
6594,Irumbuliyur,12.91664,80.10667
6596,Therasapuram,12.91675,79.93263
6597,Therasapuram,12.91684,79.93229
6598,Medavakkam Junction,12.91694,80.19426
6599,Medavakkam Junction,12.91698,80.19237
6600,Medavakkam Junction,12.91718,80.19148
8015,Kannigaipair Bazar,13.27452,80.09485
6602,Sakthi Nagar,12.91733,80.09486
8017,Pudukuppam,13.27465,80.19855
6604,Tmg College Manimangalam,12.91739,80.05316
6605,Ambedkar Nagar Camp Road,12.91751,80.14569
6606,Ambedkar Nagar Camp Road,12.91766,80.14554
6607,Parwati Nagar,12.91825,80.08173
5604,P.F Office,13.04914,80.26424
7645,Sidco Office,13.18458,80.12407
7644,Vaikadu,13.18430,80.26971
6603,Sakthi Nagar,12.91734,80.09491
7643,Sidco Office,13.18409,80.12398
6608,Vengaivasal Road Junction,12.91831,80.17666
6609,Parwati Nagar,12.91834,80.08164
1830,Kannagi Statue Or Presidency College,13.05754,80.28132
6610,Aakash Institute,12.91847,80.18807
6611,Vengaivasal Road Junction,12.91850,80.17662
6612,Aakash Institute,12.91857,80.18819
8018,Pudukuppam,13.27469,80.19872
10874,Btu,13.06901,80.27235
6613,Aladi Amman Kovil,12.91872,80.04690
6614,Vijaya Nagaram,12.91877,80.17887
6615,Aladi Amman Kovil,12.91879,80.04699
6616,Injambakkam,12.91882,80.25093
6617,Injambakkam,12.91885,80.25066
6618,Vijaya Nagaram,12.91902,80.17890
8020,Kanniyampalayam,13.27561,80.21199
8021,Kanniyampalayam,13.27571,80.21209
8022,Erikarai,13.27638,80.08953
6619,Pushpagiri,12.91918,80.02526
6620,Pushpagiri,12.91939,80.02506
6621,Samsung India Electronics Sriperumbudur,12.91941,79.87974
6622,Kcg College,12.91964,80.23025
6623,Medavakkam,12.91968,80.18178
7559,Carborundum Universal,13.17222,80.31203
7560,Ikkadu Kandigai,13.17243,79.93594
7561,Carborundum Universal,13.17252,80.31165
6624,Sri Padmavathi Mahal,12.91972,80.08709
6625,Santhosapuram,12.91973,80.17128
6626,Kcg College,12.91977,80.22990
6628,Sri Padmavathi Mahal,12.91985,80.08709
6630,Santhosapuram,12.91990,80.17129
8023,Erikarai,13.27639,80.08962
8024,Minjur Market,13.27851,80.26018
8999,Kundrathur Lake View Road,13.00712,80.09079
6629,Medavakkam,12.91986,80.18191
8026,Enambakkam,13.27872,79.98329
6633,Medavakkam Koot Road,12.92071,80.18504
6634,Gandhi Nagar,12.92090,80.08996
6635,Gandhi Nagar,12.92098,80.08977
6636,Barathi Nagar,12.92156,80.09272
6637,Barathi Nagar,12.92164,80.09250
8025,Minjur Market,13.27854,80.26019
8027,Minjur Market,13.27874,80.26017
10878,Ramada Raj Park,13.04413,80.25973
6638,Prince College,12.92202,80.16391
6639,Camp Road Junction Selaiyur,12.92213,80.14310
6640,Prince College,12.92218,80.16396
6642,Asan College,12.92231,80.19743
8028,Minjur Market,13.27899,80.26016
8029,Melmaligaipattu,13.27987,79.99779
8030,Melmaligaipattu,13.27988,79.99785
9060,Vayalur,13.01497,79.91231
9061,Labour Colony,13.01507,80.21486
6644,Mahalakshmi Nagar,12.92257,80.14738
6645,Selaiyur,12.92260,80.13744
6646,Camp Road Junction Selaiyur,12.92260,80.14384
6647,Aathi Nagar,12.92260,80.13334
6648,Rajakilpakkam,12.92262,80.15180
6649,Rajakilpakkam,12.92265,80.15187
8031,Maduravoyal Rettai Kinaru,13.28032,80.07827
8032,Maduravoyal Rettai Kinaru,13.28049,80.07833
8033,Minjur Railway Station,13.28181,80.26096
10879,Narikuravar Colony,13.01564,80.24452
6650,Mahalakshmi Nagar,12.92271,80.14727
6651,East Tambaram Convent,12.92272,80.13106
6652,Aathi Nagar,12.92278,80.13341
6653,Rajakilpakkam,12.92280,80.15176
8034,Minjur Railway Station,13.28182,80.26084
8035,Kesavapuram,13.28344,80.24496
8036,Kesavapuram,13.28349,80.24485
6655,Advent Christian Church Sembakkam,12.92291,80.16263
6656,Poondi Bazaar,12.92293,80.12577
6658,Tambaram Railway Station East,12.92313,80.12190
6659,Sembakkam,12.92316,80.16030
6661,Vettri Nagar,12.92320,80.09709
7646,Nasarath,13.18441,79.94662
7647,Ayurveda Ashramam,13.18453,80.19163
7648,Veerapuram,13.18454,80.08427
6657,Advent Christian Church Sembakkam,12.92294,80.16268
6663,Tambaram Railway Station East,12.92328,80.12192
6664,Kamarajapuram Camp Road,12.92333,80.15406
6665,Asan College,12.92337,80.19733
10820,Kovalam Kelambakam Road Junction,12.78581,80.24445
7562,Ikkadu Kandigai,13.17258,79.93583
7563,Moorai Anna Nagar,13.17278,80.09149
7564,Moorai Anna Nagar,13.17299,80.09133
6668,Tambaram East Bus Stop,12.92340,80.12050
6667,Varadharajapuram Rayappa Nagar,12.92339,80.07721
7565,Kargil Nagar,13.17351,80.29222
6669,Sembakkam,12.92342,80.16005
6670,Vettri Nagar,12.92357,80.09743
6671,Varadharajapuram Rayappa Nagar,12.92368,80.07798
6672,Bethal Nagar,12.92433,80.25128
6673,Bethal Nagar,12.92476,80.25107
8037,Nalur,13.28394,80.24247
8038,Nalur,13.28402,80.24239
8039,Jayapuram Oil Mill,13.28527,80.06997
5447,Velachery Main Road (Concord),13.01135,80.22325
6674,Chetpet,12.92477,80.01232
6675,Chetpet,12.92485,80.01243
6676,Lakshmipuram,12.92530,80.10096
6678,Kannagi Nagar Bus Terminus,12.92530,80.23832
6679,Kulakkarai Bus Stop,12.92548,80.10431
8040,Jayapuram Oil Mill,13.28542,80.06998
8041,Panchetti,13.28648,80.14878
8042,Panchetti,13.28674,80.14898
5378,Velachery Main Road,13.01547,80.22533
8043,Vadamadurai,13.28697,80.04216
5946,Mamallapuram E C R,12.62847,80.19469
8044,Vadamadurai,13.28704,80.04216
6680,Lakshmipuram,12.92556,80.10131
6682,Kulakkarai Bus Stop,12.92566,80.10433
6683,Tambaram West,12.92570,80.10612
6684,Okkiyampet,12.92577,80.23068
8045,Pettaimedu,13.28814,80.04555
8046,Pettaimedu,13.28822,80.04557
5344,Kannagi Nagar Depot,12.92534,80.23839
6685,Tambaram West,12.92583,80.10660
6686,Okkiyampet,12.92584,80.23108
6690,Sai Baba Kovil,12.92751,80.25145
6688,Pallikaranai Government School,12.92628,80.19742
6689,Pallikaranai Government School,12.92633,80.19761
8047,Panapakkam,13.29075,80.05770
8048,Panapakkam,13.29113,80.05720
8049,New Nagar,13.29129,80.02012
5911,Bsnl Telephone Exchange,13.00076,80.25631
1981,Kaviarasu Kannadasan Nagar Bus Stand,13.13639,80.25757
6687,Sunguvarchatram,12.92593,79.88029
5912,Bsnl Telephone Exchange,13.00074,80.25648
6692,Tambaram West Bus Stand,12.92805,80.11933
6691,Sai Baba Kovil,12.92755,80.25126
6694,Thirumangalam,12.92916,79.88822
6695,Oil Mill,12.92917,80.20255
6696,Thirumangalam,12.92928,79.88831
8050,New Nagar,13.29130,80.02023
8051,Mettupalayam,13.29270,80.21729
8052,Mettupalayam,13.29271,80.21740
76,Mandaveli Market,13.02900,80.26638
6698,Navagraha Vinayagar Temple,12.92933,80.16292
6699,Oil Mill,12.92945,80.20280
6700,Malai Pattu,12.92955,80.00320
6701,Babu Road Junction,12.92984,80.14810
6702,Babu Road Junction,12.92988,80.14802
8053,Sri Ramapuram Kandigai,13.29392,80.04739
8054,Mtc Nagar,13.29401,80.05239
8055,Sri Ramapuram Kandigai,13.29405,80.04732
6703,Malai Pattu,12.93006,80.00281
6704,Bampan Salai,12.93056,80.14235
6705,Seva Sadan Higher Secondary School,12.93065,80.11164
6706,Seva Sadan Higher Secondary School,12.93075,80.11155
6707,Bampan Salai,12.93088,80.14228
6708,Three Aduku,12.93130,80.23844
6709,Three Aduku,12.93136,80.23857
8056,Mtc Nagar,13.29435,80.05227
8057,Elavambedu,13.29448,80.21570
8058,Elavambedu,13.29451,80.21574
5914,Jayanthi Theatre,12.98892,80.25601
10886,Palanjur,13.08029,80.21447
6710,Vellaikal,12.93137,80.18161
6711,Vellaikal,12.93160,80.18151
6713,Mambakkam Sipcot,12.93311,79.90679
6714,Sithalapakkam Erikarai,12.93321,80.13803
6715,Thirumalai Nagar,12.93325,80.16352
8060,Thachur Koot Road Junction,13.29661,80.14757
8061,Sanarpalayam,13.29835,80.21389
10887,Annambedu,13.07494,80.21775
6712,Kadaperi,12.93310,80.12406
5915,Bazullah Road,13.04718,80.23421
6716,Thirumalai Nagar,12.93325,80.16358
6717,Mambakkam Sipcot,12.93330,79.90656
6719,Sithalapakkam Erikarai,12.93338,80.13794
6720,Sarvamangalam Nagar,12.93346,80.14830
6721,Sarvamangalam Nagar,12.93374,80.14831
6722,Pallikaranai,12.93399,80.20399
8062,Avadi Road Junction,13.29836,80.04934
8063,Avadi Road Junction,13.29836,80.04849
8064,Sanarpalayam,13.29840,80.21376
9886,Caterpillar,13.09759,79.90744
10888,Sathuma Nagar,13.07574,80.21339
6723,Pallikaranai,12.93411,80.20380
6725,Vadakkupattu,12.93510,80.18238
6724,Vadakkupattu,12.93508,80.18226
6726,Ptc Quarters,12.93570,80.23441
6727,Loyola School,12.93573,80.14749
8065,Avadi Road Junction,13.29852,80.04843
8066,Thachur,13.29854,80.15363
8067,Thachur,13.29879,80.15483
113,Pudur High School,13.04199,80.21602
6728,Aradhana Supermarket,12.93575,80.16401
6729,Aradhana Supermarket,12.93575,80.16415
6730,Loyola School,12.93575,80.14746
6731,Puliyamaram,12.93586,80.14480
6732,Puliyamaram,12.93588,80.14479
6733,Lakhe View Road,12.93596,80.16637
6734,Lakhe View Road,12.93598,80.16635
6735,Kannadapalayam,12.93599,80.10061
8068,Venkathakulam,13.29960,80.02869
8069,Venkathakulam,13.29964,80.02865
8070,Keelameni,13.29992,80.13321
6736,Muthulamman Kovil,12.93605,80.14327
5918,Kannagi Statue Or Presidency College,13.05528,80.28165
6737,Kannadapalayam,12.93607,80.10052
6741,Ponniamman Kovil,12.93682,80.15870
6739,Zion Matriculation High School,12.93639,80.16087
8071,Keelameni,13.29995,80.13342
8072,Andarkuppam,13.30167,80.16066
8073,Andarkuppam,13.30168,80.16050
47,Egmore Womens Hospital,13.07159,80.25924
6740,Zion Matriculation High School,12.93644,80.16085
6742,Arunodayam Nagar,12.93684,80.17077
6744,Arunodayam Nagar,12.93686,80.17079
6743,Ponniamman Kovil,12.93685,80.15881
6746,Gangai Amman Kovil,12.93692,80.13953
8074,Neidavoyal,13.30351,80.27240
8075,Neidavoyal,13.30353,80.27256
8076,Neidavoyal Government School,13.30405,80.27328
5553,Egmore,13.07702,80.26556
6753,Varadharaja Theatre,12.93741,80.13889
6750,Auto Stand,12.93735,80.15631
6751,Varadharaja Theatre,12.93737,80.13866
6752,Auto Stand,12.93739,80.15636
8077,Neidavoyal Government School,13.30407,80.27311
8078,Kattupalli Village,13.30678,80.32809
8079,Kattupalli Village,13.30695,80.32828
1420,Golden Flats,13.08834,80.17839
6749,Varadharaja Theatre,12.93728,80.13870
5921,Queen Marys College,13.04558,80.27998
2145,Kotturpuram,13.02310,80.24264
2144,Kotturpuram,13.01879,80.24123
7492,Manali Metro Water,13.16204,80.26435
7493,Arikamedu,13.16236,80.12959
2142,Kottur,13.01751,80.24088
7494,Arikamedu,13.16236,80.12913
7495,Arikamedu,13.16236,80.12964
6754,Tambaram Sanatorium B.T,12.93746,80.12840
8080,Nelcast Company,13.30724,80.16769
8081,Nelcast Company,13.30742,80.16768
8083,Madhavaram,13.30889,80.17341
8084,Madhavaram,13.30903,80.17318
8085,Thumbakkam,13.30958,80.01701
8086,Thumbakkam,13.30975,80.01669
6097,Kelambakkam School,12.78566,80.22144
5923,Kannagi Statue Or Presidency College,13.05643,80.28174
8082,Periyapalayam Bus Stand,13.30815,80.04613
8090,Thandalam,13.31074,80.00475
8087,Uthandi Kandigai,13.30977,80.21236
8088,Uthandi Kandigai,13.30990,80.21228
8091,Kakkavakkam,13.31122,79.99748
8092,Merattur,13.31126,80.27594
8093,Merattur,13.31128,80.27590
10893,Gundumedu,13.07486,80.22050
8089,Thandalam,13.31067,80.00466
8094,Kakkavakkam,13.31138,79.99728
8095,Ariyapakkam,13.31166,80.03329
8096,Sayanavaram,13.31201,80.17643
8097,Ariyapakkam,13.31205,80.03207
8098,Sayanavaram,13.31212,80.17638
8099,L And T Corner,13.31224,80.32489
8100,Athupakkam,13.31226,80.02621
7765,Manali New Town Bus Stand,13.20203,80.27613
8101,L And T Corner,13.31235,80.32471
8102,Pulikulam,13.31251,80.21127
8103,Pulikulam,13.31264,80.21124
8104,Karumbu Noor Kandigai,13.31266,79.99194
8105,Karumbu Noor Kandigai,13.31273,79.99203
8106,Periyapalayam Police Station,13.31275,80.04735
7813,Infant Jesus Shrine Manali New Town,13.21358,80.27185
8107,Periyapalayam Police Station,13.31280,80.04728
8108,Athupakkam,13.31286,80.02660
5926,Iyyappanthangal Bus Depot,13.03812,80.13487
8109,Vayalur,13.31326,80.27653
8110,Vayalur,13.31338,80.27661
8111,Soolaimeni,13.31403,79.98349
8112,Soolaimeni,13.31411,79.98359
9062,Vayalur,13.01508,79.91224
9063,Namashivayapuram,13.01508,79.91613
9065,Thandalam,13.01518,80.00410
8113,Peravallur,13.31463,80.14561
8116,Rallapadi,13.31647,80.04935
8117,Rallapadi,13.31652,80.04935
8114,Peravallur,13.31476,80.14602
8119,Lachivakkam,13.31662,79.96280
8115,Vaayalur Colony,13.31632,80.27783
8118,Vaayalur Colony,13.31656,80.27781
8120,Lachivakkam,13.31667,79.96282
8121,Kokkumedu,13.31719,80.20773
8124,Palavakkam,13.31799,79.96048
10897,Keerappakkam Tnuhdb,12.82888,80.11400
5885,Thiruvallur Oil Mill,13.12268,79.91161
8125,Kattupalli,13.31984,80.33584
8128,Ellampettai,13.32165,79.95332
8129,Ellampettai,13.32173,79.95334
10898,Annanagar East,13.08688,80.21920
8127,Siruvapuri Temple,13.32091,80.12003
8132,Kokkumedu,13.32340,80.27987
8133,Kokkumedu,13.32341,80.27999
5930,Chinthathripet Railway Station,13.07888,80.27039
5836,Thiruvallur Oil Mill,13.12244,79.91173
8130,Ayyanar Medu,13.32309,80.11911
8134,Kosavanpettai,13.32630,80.07007
8135,Kosavanpettai,13.32634,80.07026
8136,Vanakkam,13.32666,80.19959
8137,Vanakkam,13.32671,80.19944
8138,Thiru Vellivoyal Government School,13.32748,80.28284
8139,Thiru Vellivoyal Government School,13.32764,80.28314
9091,Thandalam Koot Road,13.01849,80.01068
9092,Adduthotti Bridge,13.01852,80.21892
8016,Athipedu,13.27453,80.15106
5931,Secretariat,13.08075,80.28826
9090,Adduthotti Bridge,13.01848,80.21893
8140,Thommaram Bedu,13.32913,79.92150
8141,Thommaram Bedu,13.32919,79.92155
8143,Old Arani,13.33051,80.08272
5932,War Memorial,13.07423,80.28620
8145,Old Arani,13.33065,80.08283
8146,Ponneri Petrol Bunk,13.33179,80.18887
8019,Athipedu,13.27516,80.15107
8147,Ponneri Petrol Bunk,13.33188,80.18903
8148,Ponneri Taluk Office,13.33195,80.19443
8149,Ponneri Taluk Office,13.33196,80.19436
194,12th Main Road,13.08524,80.20465
8153,Uthukkottai,13.33413,79.89387
10901,Anna Nagar East Depot,13.08853,80.21829
8152,Uthukkottai,13.33399,79.89416
8150,Palavakkam,13.33342,80.09646
8151,Palavakkam,13.33359,80.09689
138,Trustpuram,13.05262,80.22158
8154,Agaram,13.33424,80.11203
8155,Chinnambedu Lake,13.33461,80.10353
8163,Chennang Karanai,13.33676,79.98399
8158,Puduvayal,13.33479,80.14309
8159,Puduvayal,13.33495,80.14341
7879,Old Erumai Vetti Palayam,13.22866,80.12803
8160,Thiru Vellivoyal Ration Shop,13.33569,80.28572
8161,Thiru Vellivoyal Ration Shop,13.33571,80.28562
8157,Agaram,13.33473,80.11196
8162,Ponneri Bus Stand,13.33588,80.19384
7896,New Erumai Vetti Palayam 1 Stop,13.23501,80.11882
7897,New Erumai Vetti Palayam 1 Stop,13.23505,80.11885
7649,Veerapuram,13.18458,80.08433
7650,Chettimedu,13.18459,80.22159
7651,Ayurveda Ashramam,13.18465,80.19141
7652,Chettimedu,13.18476,80.22159
7653,Lift Gate Police Station,13.18491,80.31168
7654,Lift Gate Police Station,13.18494,80.31165
7655,Barathiyar Nagar,13.18529,80.31701
8165,Deverangari Road,13.34094,80.20642
2334,M K B Nagar,13.12303,80.25977
2335,M K B Nagar,13.12479,80.25913
8168,Lakshmipuram,13.34249,80.22159
8169,Peruvayal,13.34375,80.14407
8170,Peruvayal,13.34386,80.14424
7878,Old Erumai Vetti Palayam,13.22861,80.12809
8167,Lakshmipuram,13.34249,80.22153
8171,Chinnakavanam Junction,13.34393,80.19582
8172,Chinnakavanam Junction,13.34397,80.19581
8173,Chinnakavanam Vade 1,13.34516,80.19530
8174,Chinnakavanam Vade 1,13.34522,80.19523
8177,Perumbedu,13.35870,80.24134
8178,Perumbedu,13.35881,80.24140
8175,Kattur,13.35539,80.28462
7937,Vazhuthalambedu,13.24597,80.23139
8179,Uppaplam 1,13.36231,80.20222
8180,Uppaplam 1,13.36232,80.20230
8182,Uppaplam 2,13.36387,80.20345
8183,Uppaplam 2,13.36412,80.20358
8184,Kavalpatti Police Station,13.36616,80.20558
8185,Kavalpatti Police Station,13.36620,80.20560
6340,Kandigai Goverment High School,12.85482,80.14250
10909,Sringeri Mutt,13.02700,80.25922
10908,Indian Terrain Alwarpet,13.03060,80.25099
8186,Mambakkam Road And Atanoor Road Junction,13.36622,80.13908
8187,Mambakkam Road And Atanoor Road Junction,13.36637,80.13935
8188,Kavalpatti,13.36891,80.20837
8189,Kavalpatti,13.36893,80.20830
8190,Thandalacheri,13.37510,80.10062
8191,Thandalacheri,13.37520,80.10053
6339,Kandigai Goverment High School,12.85478,80.14254
8192,Panapakkam,13.37598,80.13786
8193,Getnamalli,13.37651,80.09436
8194,Getnamalli,13.37654,80.09453
8195,Panapakkam,13.37768,80.13718
8198,Iyerkandigai,13.38105,80.07846
8199,Iyerkandigai,13.38110,80.07816
7825,Magaral Kandigai,13.21544,80.04767
8196,Lakshmipuram,13.37775,80.08731
8197,Lakshmipuram,13.37781,80.08724
8200,Narayanasamy Kandigai,13.38304,80.07088
8201,Narayanasamy Kandigai,13.38304,80.07113
8202,Methur,13.38524,80.21848
8203,Methur,13.38529,80.21834
8204,Suravarikandigai,13.38570,80.06164
8205,Suravarikandigai,13.38580,80.06165
6693,Tambaram West Bus Stand,12.92772,80.11864
5876,Mettukandigai,13.09536,79.99287
8206,Verkadu,13.38620,80.13577
6404,Vengambakkam Village,12.87267,80.13286
8208,Vanjivakkam,13.39049,80.25930
2414,Madras University,13.06541,80.28363
2413,Madras University,13.06536,80.28382
8211,Bharathi Nagar,13.39162,80.23047
8212,Guruvarajakandigai,13.39322,80.05796
10912,T.V.K Nagar,13.11988,80.23229
8207,Verkadu,13.38643,80.13530
8210,Bharathi Nagar,13.39130,80.23006
8214,Ayanallur,13.39594,80.13300
8215,Ayanallur,13.39641,80.13227
8216,Kaanji Vayal,13.39648,80.24017
8217,Kaanji Vayal,13.39655,80.24020
8218,Thideer Nagar,13.39685,80.05233
8219,Thideer Nagar,13.39685,80.05219
8220,Kattur Cross Road,13.40041,80.26137
8213,Guruvarajakandigai,13.39330,80.05785
6368,Vengambakkam Road Junction,12.86285,80.12689
8221,Kattur Cross Road,13.40048,80.26127
8222,Palayambakkam,13.40133,80.27017
8223,Palayambakkam,13.40135,80.27014
8225,Andarmadam,13.40228,80.30023
8226,Avoor Rice Mill,13.40232,80.22236
8227,Avoor Rice Mill,13.40232,80.22242
6365,Vengambakkam Road Junction,12.86270,80.12683
7500,Thiruvottiyur Market Beach Road,13.16258,80.30652
7496,Manali Meenakshi Theatre,13.16241,80.26244
8224,Andarmadam,13.40228,80.30032
10914,Besant Nagar,13.00067,80.26696
7497,Ayaloor,13.16246,79.98371
7498,Manali Meenakshi Theatre,13.16250,80.26247
7499,Ayaloor,13.16252,79.98370
7501,Manapakkam,13.16267,80.22476
8228,Thirupalaivanam,13.40233,80.24970
8229,Thirupalaivanam,13.40238,80.24964
8230,Pollachi Amman Kulam,13.40421,80.28345
8231,Pollachi Amman Kulam,13.40422,80.28339
8232,Andarmadam School,13.40441,80.29340
8233,Andarmadam School,13.40444,80.29342
8498,Nagalkeni,12.96107,80.13669
8234,Pakkam,13.40532,80.28602
5922,Vivekananda House,13.05099,80.28083
8235,Pakkam,13.40535,80.28609
8236,Poovalambedu,13.40555,80.03571
8237,Poovalambedu,13.40555,80.03554
8239,Gummidipundi Market,13.40974,80.12675
8240,Gummidipundi Market,13.40975,80.12680
8241,Idayankulam,13.40977,80.31097
10916,H.M. Hospital,13.02913,80.25390
5916,Vivekananda House,13.05038,80.28088
8242,Idayankulam,13.40985,80.31099
8243,Avoor Thope,13.41235,80.22393
8244,Thaanipoondi,13.41241,80.01665
8245,Thaanipoondi,13.41242,80.01684
8246,Avoor Thope,13.41243,80.22397
8247,Rettempedu Road Junction,13.41275,80.12693
8248,Rettempedu Road Junction,13.41286,80.12688
9093,Mevalurkuppam Junction,13.01854,79.99544
9094,Mevalurkuppam,13.01862,80.00636
9095,Mevalurkuppam,13.01874,80.00666
8253,Amarambedu,13.41528,80.00843
8249,Pulicat Old Market Pazhaverkadu,13.41315,80.31404
8250,Pulicat Old Market Pazhaverkadu,13.41326,80.31412
8251,Pulicat Bus Stand Pazhaverkadu,13.41478,80.31378
8252,Pulicat Bus Stand Pazhaverkadu,13.41510,80.31379
8254,Amarambedu,13.41541,80.00835
8255,Kottai Karai,13.41807,80.12707
2511,Manamathi School,12.66505,80.12980
8256,Kottai Karai,13.41808,80.12712
132,Sterling Road Chetpat,13.06203,80.24317
8258,Irt,13.43029,80.12227
8259,Irt,13.43039,80.12227
2509,Manamathi Koot Road,12.71924,80.17776
8260,Nomalur Colony,13.43042,80.00080
8257,Pazhaverkadu,13.41849,80.31565
8261,Nomalur Colony,13.43048,80.00089
8262,Kolur,13.43129,80.22690
8263,Kolur,13.43129,80.22684
8264,Pethi Kuppam Gate,13.43529,80.11933
8265,Pethi Kuppam Gate,13.43541,80.11937
10918,Anna Nagar West Terminus,13.09383,80.19814
8267,Pudhucehrimedu,13.43851,80.25167
8268,Nomalur,13.44024,80.00256
8269,Nomalur,13.44040,80.00268
8266,Pudhucehrimedu,13.43846,80.25169
2532,Mandaveli Railway Station,13.02709,80.25992
5868,Thirumazhisai Koil,13.05447,80.06145
8271,Milage,13.44722,80.11403
8272,Milage,13.44725,80.11428
8273,Elavur Gate,13.46036,80.11562
8270,Madurapakkam,13.44496,80.00339
2533,Mandaveli Railway Station,13.02711,80.25986
